City,Lat,Lng,Max Temp,Humidity,Cloudiness,Wind Speed,Country,Date
Esperance,-33.8667,121.9,84.2,21,36,14.97,AU,1619408656
Cape Town,-33.9258,18.4232,63.0,88,75,12.66,ZA,1619408574
Pevek,69.7008,170.3133,25.61,84,99,2.33,RU,1619408657
Cabo San Lucas,22.8909,-109.9124,72.0,50,100,12.57,MX,1619408657
Rikitea,-23.1203,-134.9692,77.88,74,28,4.79,PF,1619408615
Buraidah,26.326,43.975,73.4,53,20,4.61,SA,1619408658
Khatanga,71.9667,102.5,16.77,86,100,17.02,RU,1619408362
Punta Arenas,-53.15,-70.9167,44.6,93,90,5.75,CL,1619408372
Pangnirtung,66.1451,-65.7125,29.16,80,98,7.05,CA,1619408462
Quatre Cocos,-20.2078,57.7625,77.0,88,75,14.97,MU,1619408659
Ahipara,-35.1667,173.1667,63.14,65,22,7.67,NZ,1619408660
Albany,42.6001,-73.9662,45.0,49,54,1.01,US,1619408457
Lebu,-37.6167,-73.65,54.14,93,24,9.82,CL,1619408305
Barrow,71.2906,-156.7887,21.2,79,1,14.97,US,1619408450
Cidreira,-30.1811,-50.2056,63.91,64,65,12.66,BR,1619408661
Narsaq,60.9167,-46.05,50.0,32,75,31.07,GL,1619408662
Cherskiy,68.75,161.3,22.69,72,91,6.46,RU,1619408662
Bluff,-46.6,168.3333,48.99,70,84,17.0,NZ,1619408376
Manokwari,-0.8667,134.0833,81.93,76,93,8.1,ID,1619408663
Tiksi,71.6872,128.8694,27.09,94,100,13.73,RU,1619408663
Hasaki,35.7333,140.8333,66.0,31,20,13.8,JP,1619408664
Ushuaia,-54.8,-68.3,46.4,76,75,12.66,AR,1619408367
Half Moon Bay,37.4636,-122.4286,53.6,87,40,5.19,US,1619408471
Bengkulu,-3.8004,102.2655,85.05,67,37,6.8,ID,1619408611
Port-Cartier,50.0334,-66.8654,41.0,56,75,9.22,CA,1619408665
Mataura,-46.1927,168.8643,48.99,71,98,18.99,NZ,1619408623
Noumea,-22.2763,166.4572,75.2,69,20,13.8,NC,1619408578
Houlton,46.1262,-67.8403,46.99,76,90,3.44,US,1619408142
Vardø,70.3705,31.1107,28.4,69,75,11.5,NO,1619408666
Ouadda,8.0777,22.4007,69.82,92,100,5.97,CF,1619408667
Muros,42.7762,-9.0603,53.01,95,16,1.01,ES,1619408615
Faya,18.3851,42.4509,62.6,67,40,6.51,SA,1619408368
Baghdad,33.3406,44.4009,75.2,35,95,6.91,IQ,1619408668
Trincomalee,8.5711,81.2335,83.64,66,62,4.68,LK,1619408668
Port Blair,11.6667,92.75,86.79,57,77,4.18,IN,1619408668
Paamiut,61.994,-49.6678,33.98,99,100,6.08,GL,1619408669
Dingle,10.9995,122.6711,90.7,50,68,8.12,PH,1619408444
Anloga,5.7947,0.8973,82.4,89,40,2.3,GH,1619408670
Purpe,64.4803,76.6897,34.21,100,99,15.28,RU,1619408670
Kalmunai,7.4167,81.8167,84.58,67,97,6.31,LK,1619408670
Middletown,39.5151,-84.3983,46.4,87,1,4.61,US,1619408667
Constitución,-35.3333,-72.4167,56.39,77,0,8.28,CL,1619408671
Tūkrah,32.5341,20.5791,58.57,87,24,6.58,LY,1619408672
New Norfolk,-42.7826,147.0587,66.2,45,40,18.41,AU,1619408659
Sturgis,41.7992,-85.4192,37.99,87,1,3.44,US,1619408388
Hobart,-42.8794,147.3294,66.2,45,40,19.57,AU,1619408324
Kamyshin,50.0983,45.416,45.82,49,100,2.66,RU,1619408673
Mar del Plata,-38.0023,-57.5575,60.01,88,75,7.85,AR,1619408673
Port Alfred,-33.5906,26.891,71.19,44,93,7.58,ZA,1619408637
Vaini,-21.2,-175.2,80.6,83,40,5.75,TO,1619408674
Alofi,-19.0595,-169.9187,84.2,74,84,5.75,NU,1619408679
Kapaa,22.0752,-159.319,77.0,73,1,13.8,US,1619408270
Vila Velha,-20.3297,-40.2925,77.0,83,0,3.44,BR,1619408680
Indi,17.1667,75.9667,92.43,27,91,8.95,IN,1619408681
Bathsheba,13.2167,-59.5167,78.8,61,40,16.11,BB,1619408681
Santa Rita do Sapucaí,-22.2522,-45.7033,57.02,84,92,1.88,BR,1619408682
Iquitos,-3.7481,-73.2472,78.8,89,0,6.91,PE,1619408683
Southbridge,42.0751,-72.0334,48.0,98,45,13.8,US,1619408683
Maniitsoq,65.4167,-52.9,38.57,77,100,4.83,GL,1619408438
Flinders,-34.5833,150.8552,72.0,37,0,4.61,AU,1619408268
Qaqortoq,60.7167,-46.0333,50.0,32,75,31.07,GL,1619408684
Provideniya,64.3833,-173.3,33.8,75,0,6.71,RU,1619408685
Bethel,41.3712,-73.414,55.4,50,1,4.61,US,1619408685
Dikson,73.5069,80.5464,19.18,93,100,21.16,RU,1619408280
Airai,-8.9266,125.4092,74.25,39,36,2.98,TL,1619408686
Seddon,-37.8068,144.8916,64.99,59,90,10.36,AU,1619408686
Atuona,-9.8,-139.0333,79.84,77,71,17.81,PF,1619408447
Butaritari,3.0707,172.7902,83.17,73,16,11.52,KI,1619408687
Ambam,2.3833,11.2833,68.29,98,80,0.43,CM,1619408688
Sioux Lookout,50.1001,-91.917,37.4,44,90,3.44,CA,1619408560
Balclutha,-46.2339,169.75,48.0,68,100,8.01,NZ,1619408688
Kushima,31.4583,131.2333,68.0,42,75,13.8,JP,1619408689
Dilla,6.41,38.31,63.68,89,99,2.51,ET,1619408689
Yellowknife,62.456,-114.3525,8.6,78,90,12.66,CA,1619408509
Gijang,35.2442,129.2139,66.2,32,0,10.36,KR,1619408690
Fortuna,40.5982,-124.1573,50.0,93,40,2.51,US,1619408690
Bereda,43.2686,-7.5406,48.0,100,98,1.99,ES,1619408691
Demba,-5.51,22.2667,67.98,99,100,1.68,CD,1619408692
Presidencia Roque Sáenz Peña,-26.7852,-60.4388,53.17,83,0,4.25,AR,1619408692
Santa María del Río,21.8,-100.75,66.2,52,75,4.61,MX,1619408692
Udachny,66.4167,112.4,15.98,81,100,25.77,RU,1619408693
Ribeira Grande,38.5167,-28.7,59.0,72,20,11.5,PT,1619408441
Torbay,47.6666,-52.7314,41.0,70,1,5.75,CA,1619408694
Tuktoyaktuk,69.4541,-133.0374,12.2,79,90,12.66,CA,1619408656
Fare,-16.7,-151.0167,81.5,63,2,1.25,PF,1619408694
Yerbogachën,61.2767,108.0108,29.84,57,99,13.33,RU,1619408695
Ikom,5.9667,8.7063,74.08,97,100,1.34,NG,1619408695
East London,-33.0153,27.9116,69.8,46,0,10.36,ZA,1619408696
Pisco,-13.7,-76.2167,64.4,88,0,1.14,PE,1619408663
West Bay,19.3667,-81.4167,80.6,78,0,2.3,KY,1619408696
Talnakh,69.4865,88.3972,10.36,85,98,8.66,RU,1619408697
Bredasdorp,-34.5322,20.0403,51.8,93,93,4.61,ZA,1619408697
Biak,-0.9131,122.8766,83.41,66,68,6.46,ID,1619408698
Avarua,-21.2078,-159.775,80.6,78,20,5.75,CK,1619408602
Nanortalik,60.1432,-45.2371,37.27,93,100,4.56,GL,1619408698
Severo-Kuril'sk,50.6789,156.125,31.86,97,100,15.05,RU,1619408699
Cam Ranh,11.9214,109.1591,87.8,66,20,8.05,VN,1619408704
Saint-Joseph,-21.3667,55.6167,78.8,65,0,13.8,RE,1619408705
Aktash,50.3,87.7333,23.58,58,92,3.22,RU,1619408706
Acajutla,13.5928,-89.8275,73.0,95,100,5.37,SV,1619408706
Saint-Philippe,-21.3585,55.7679,78.8,65,0,13.8,RE,1619408707
Wundanyi,-3.4019,38.364,61.88,88,69,5.01,KE,1619408707
Hilo,19.7297,-155.09,73.4,78,90,6.91,US,1619408707
Nikolskoye,59.7035,30.7861,39.0,87,90,11.18,RU,1619408708
Saint George,37.1041,-113.5841,71.6,15,1,5.75,US,1619408221
Hermanus,-34.4187,19.2345,59.0,92,1,5.01,ZA,1619408439
Tasiilaq,65.6145,-37.6368,37.4,70,90,14.97,GL,1619408709
Jamestown,42.097,-79.2353,34.0,86,40,10.36,US,1619408198
Merauke,-8.4667,140.3333,82.96,73,99,4.05,ID,1619408710
Coahuayana Viejo,18.7333,-103.6833,72.34,87,84,1.48,MX,1619408710
Lagoa,39.05,-27.9833,58.8,85,100,10.63,PT,1619408711
Uray,60.1247,64.7758,45.48,58,72,11.3,RU,1619408711
Faanui,-16.4833,-151.75,81.39,63,15,1.81,PF,1619408711
Antofagasta,-23.65,-70.4,59.0,88,20,2.3,CL,1619408506
la Garriga,41.6833,2.2833,61.0,69,100,1.01,ES,1619408712
Springbok,-29.6643,17.8865,58.77,49,99,3.71,ZA,1619408713
Phan Thiet,10.9333,108.1,88.16,61,69,5.91,VN,1619408713
Souillac,-20.5167,57.5167,77.0,88,75,14.97,MU,1619408441
Lavrentiya,65.5833,-171.0,32.97,92,97,0.56,RU,1619408714
Carnarvon,-24.8667,113.6333,89.6,22,0,6.91,AU,1619408644
Clonakilty,51.6231,-8.8706,44.01,75,20,9.22,IE,1619408715
El Alto,-4.2714,-81.2147,70.5,75,39,12.19,PE,1619408715
Puerto Wilches,7.3483,-73.896,75.76,95,100,0.54,CO,1619408716
Qaanaaq,77.484,-69.3632,28.04,63,8,9.17,GL,1619408298
Clyde River,70.4692,-68.5914,23.0,93,90,12.66,CA,1619408399
Mount Isa,-20.7333,139.5,89.6,33,89,10.36,AU,1619408717
Maceió,-9.6658,-35.7353,73.4,94,20,4.61,BR,1619408442
Gazli,40.1333,63.45,72.43,17,0,23.58,UZ,1619408718
Nizwá,22.9333,57.5333,84.4,19,36,3.13,OM,1619408718
Tabuk,17.4189,121.4443,86.54,48,40,6.58,PH,1619408688
Jiuquan,39.7432,98.5174,50.76,10,1,13.15,CN,1619408719
Hithadhoo,-0.6,73.0833,82.6,67,63,4.47,MV,1619408444
Kaduqli,11.0167,29.7167,78.78,64,86,8.84,SD,1619408720
Reitz,-27.8014,28.4273,45.36,47,24,3.69,ZA,1619408720
Lorengau,-2.0226,147.2712,85.35,66,92,2.28,PG,1619408721
Waxahachie,32.3865,-96.8483,69.01,73,1,5.75,US,1619408721
Verkhnyaya Inta,65.9811,60.3094,42.22,73,100,16.78,RU,1619408722
Coyhaique,-45.5752,-72.0662,44.92,97,80,5.5,CL,1619408722
Sheregesh,52.9209,87.9869,41.67,67,100,2.44,RU,1619408723
Kavieng,-2.5744,150.7967,84.27,66,95,3.2,PG,1619408723
Busselton,-33.65,115.3333,75.0,63,99,1.99,AU,1619408437
Barra da Estiva,-13.6261,-41.3269,65.82,82,42,4.94,BR,1619408724
Sept-Îles,50.2001,-66.3821,41.0,56,75,9.22,CA,1619408724
Karratha,-20.7377,116.8463,88.25,20,0,15.64,AU,1619408730
La Ronge,55.1001,-105.2842,33.8,47,100,2.3,CA,1619408730
Carballo,43.213,-8.691,55.99,96,37,1.77,ES,1619408731
Santa Rosa,14.3122,121.1114,86.0,66,75,8.05,PH,1619408731
Te Anau,-45.4167,167.7167,46.31,78,93,6.46,NZ,1619408732
California City,35.1258,-117.9859,54.0,62,90,18.41,US,1619408732
Moose Factory,51.2585,-80.6094,19.4,79,1,3.44,CA,1619408168
Arraial do Cabo,-22.9661,-42.0278,74.03,87,56,8.88,BR,1619408532
Mahébourg,-20.4081,57.7,77.0,88,75,14.97,MU,1619408627
Paciran,-6.8767,112.3761,86.49,62,2,11.23,ID,1619408733
Castro,-24.7911,-50.0119,55.74,96,80,2.53,BR,1619408734
Hofn,64.2539,-15.2082,42.75,69,10,13.38,IS,1619408456
Slave Lake,55.2834,-114.769,41.0,30,90,3.44,CA,1619408735
Mineral Wells,32.8085,-98.1128,73.0,60,1,10.36,US,1619408570
Guerrero Negro,27.9769,-114.0611,59.02,82,100,11.65,MX,1619408628
Pombia,45.653,8.6336,57.0,71,75,3.44,IT,1619408736
Palmer,42.1584,-72.3287,51.8,54,20,11.5,US,1619408736
São Filipe,14.8961,-24.4956,71.98,70,99,8.77,CV,1619408737
Tuscaloosa,33.2098,-87.5692,57.99,82,1,3.71,US,1619408688
Vestmanna,62.1564,-7.1664,42.8,100,100,20.71,FO,1619408737
Itoman,26.1247,127.6694,78.8,50,20,11.5,JP,1619408738
Tibati,6.4667,12.6333,65.19,86,93,0.78,CM,1619408738
Ekibastuz,51.6667,75.3667,58.32,47,55,14.97,KZ,1619408739
Mount Gambier,-37.8333,140.7667,59.0,77,90,8.05,AU,1619408739
Ostrovnoy,68.0531,39.5131,31.37,94,100,22.91,RU,1619408740
Masuda,34.6667,131.85,59.0,51,0,12.66,JP,1619408740
Waingapu,-9.6567,120.2641,84.85,54,25,12.97,ID,1619408742
Belyy Yar,53.6039,91.3903,50.0,32,0,6.71,RU,1619408742
Laas,46.6166,10.7002,48.0,81,0,4.61,IT,1619408743
Waitati,-45.75,170.5667,48.0,83,77,30.0,NZ,1619408743
Hokitika,-42.7167,170.9667,55.33,78,96,21.05,NZ,1619408744
Maxixe,-23.8597,35.3472,66.96,93,0,3.65,MZ,1619408744
Kloulklubed,7.0419,134.2556,86.0,74,75,17.27,PW,1619408745
Sambava,-14.2667,50.1667,74.14,86,100,6.98,MG,1619408745
Norman Wells,65.282,-126.8329,32.0,43,40,11.5,CA,1619408746
Santo Amaro das Brotas,-10.7889,-37.0544,80.6,78,40,6.91,BR,1619408746
Nemyriv,48.9708,28.8378,35.01,93,40,6.71,UA,1619408747
Santa Maria,-29.6842,-53.8069,53.6,94,0,2.3,BR,1619408747
Saldanha,-33.0117,17.9442,60.8,94,12,9.22,ZA,1619408747
Bud,39.447,-86.1758,46.99,73,34,6.55,US,1619408748
Tanete,-3.9443,119.7848,91.62,49,98,9.31,ID,1619408748
Port-Gentil,-0.7193,8.7815,82.04,79,64,6.64,GA,1619408749
Kyabram,-36.3167,145.05,68.0,48,0,1.99,AU,1619408749
Bayir,37.2687,28.2167,53.6,87,2,2.3,TR,1619408750
Santa Fe,-31.6333,-60.7,57.0,84,0,4.0,AR,1619408658
Tambun,-6.2641,107.0712,93.99,55,20,13.8,ID,1619408756
San Jerónimo,-11.9472,-75.2829,50.97,87,99,2.8,PE,1619408756
Namatanai,-3.6667,152.4333,83.88,68,100,4.61,PG,1619408757
Visby,57.6409,18.296,35.6,80,90,13.8,SE,1619408757
Kavaratti,10.5669,72.642,84.13,73,21,6.87,IN,1619408597
Iqaluit,63.7506,-68.5145,33.8,86,90,4.61,CA,1619408442
Broome,42.2506,-75.833,39.0,70,75,12.66,US,1619408758
Alyangula,-13.8483,136.4192,75.2,100,90,4.61,AU,1619408758
Bambous Virieux,-20.3428,57.7575,77.0,88,75,14.97,MU,1619408759
Oconomowoc,43.1117,-88.4993,37.4,65,40,5.75,US,1619408672
Ilulissat,69.2167,-51.1,46.4,46,75,24.16,GL,1619408760
Mehamn,71.0357,27.8492,32.0,93,40,11.5,NO,1619408617
Nuuk,64.1835,-51.7216,35.6,93,75,5.75,GL,1619408467
Praia da Vitória,38.7333,-27.0667,59.0,88,40,10.11,PT,1619408760
Isangel,-19.55,169.2667,82.4,74,75,11.5,VU,1619408761
Russell,32.3502,-85.1999,62.6,88,1,5.17,US,1619408761
Baykit,61.67,96.37,36.16,61,64,4.74,RU,1619408762
George Town,5.4112,100.3354,89.01,70,40,2.3,MY,1619408762
Urrao,6.3152,-76.1342,58.84,96,100,0.92,CO,1619408763
Touros,-5.1989,-35.4608,75.2,94,20,4.61,BR,1619408763
Yorkton,51.2167,-102.4677,41.0,65,90,13.8,CA,1619408764
Berlevåg,70.8578,29.0864,32.0,93,40,11.5,NO,1619408764
Emerald,-23.5333,148.1667,82.0,24,0,6.91,AU,1619408765
Hong Kong,22.2855,114.1577,75.0,79,100,5.99,HK,1619408686
Daşoguz,41.8363,59.9666,64.4,29,0,13.8,TM,1619408765
Emiliano Zapata,18.8333,-99.1833,86.0,56,90,11.5,MX,1619408766
Itarema,-2.9248,-39.9167,76.59,84,9,7.56,BR,1619408766
Byron Bay,-28.65,153.6167,69.8,64,75,8.05,AU,1619408697
Tuatapere,-46.1333,167.6833,48.99,71,93,18.99,NZ,1619408768
Saint Paul Harbor,57.79,-152.4072,44.6,76,20,10.36,US,1619408726
Lithgow,-33.4833,150.15,64.99,77,2,2.26,AU,1619408768
Katsuura,35.1333,140.3,63.0,33,20,10.36,JP,1619408769
Malaut,30.2167,74.4833,93.72,8,0,5.82,IN,1619408769
Multan,30.1956,71.4753,86.0,35,0,7.05,PK,1619408687
Zlobin,45.2924,14.6541,55.4,35,0,13.8,HR,1619408770
Bandarbeyla,9.4942,50.8122,82.71,68,86,5.79,SO,1619408770
Burlington,39.8835,-74.6413,55.0,62,20,3.44,US,1619408544
Māngrol,21.1167,70.1167,87.71,52,1,11.07,IN,1619408694
Saint-Pierre,-21.3393,55.4781,78.8,65,0,13.8,RE,1619408581
Condega,13.365,-86.3985,75.58,58,16,2.28,NI,1619408772
Carbonia,39.1672,8.5222,57.2,88,20,4.61,IT,1619408772
Codrington,-38.2667,141.9667,60.84,66,100,11.07,AU,1619408773
Hamilton,39.1834,-84.5333,46.99,81,1,3.6,US,1619408541
Thompson,55.7435,-97.8558,30.2,100,90,2.3,CA,1619408773
Banepā,27.6298,85.5214,75.2,43,20,5.75,NP,1619408774
Fort Nelson,58.8053,-122.7002,51.8,24,75,6.91,CA,1619408774
Hambantota,6.1241,81.1185,84.2,94,20,3.44,LK,1619408775
Necochea,-38.5473,-58.7368,55.0,91,48,4.07,AR,1619408775
Konstantinovka,49.6167,127.9833,63.19,23,100,14.9,RU,1619408777
Sobolevo,54.4299,31.8996,31.78,77,11,7.56,RU,1619408782
Marabba,12.35,32.1833,80.67,63,96,16.17,SD,1619408782
Aksu,41.1231,80.2644,63.82,17,10,6.31,CN,1619408783
Teya,60.3778,92.6267,38.95,57,47,4.88,RU,1619408783
Mackay,-21.15,149.2,77.0,65,75,17.27,AU,1619408784
Saskylakh,71.9167,114.0833,14.68,90,100,21.54,RU,1619408784
Vao,-22.6667,167.4833,74.34,70,58,15.95,NC,1619408450
Piripiri,-4.2733,-41.7769,72.41,96,100,1.34,BR,1619408785
Puerto Ayora,-0.7393,-90.3518,74.73,87,4,6.85,EC,1619408171
Guayaramerín,-10.8368,-65.3614,71.8,98,100,4.29,BO,1619408786
Kanevskaya,46.0849,38.9596,46.02,96,100,10.63,RU,1619408786
Hurghada,27.2574,33.8129,71.6,78,0,12.17,EG,1619408787
Champerico,14.3,-91.9167,66.0,94,87,4.18,GT,1619408787
Zambezi,-13.5432,23.1047,58.96,81,6,5.48,ZM,1619408788
Sandwick,60.0,-1.25,44.6,87,100,6.91,GB,1619408788
Toora-Khem,52.4675,96.11,39.52,45,97,8.39,RU,1619408788
Ambovombe,-25.1667,46.0833,70.36,82,0,4.81,MG,1619408789
Khor,47.8861,134.9464,58.48,22,29,9.91,RU,1619408789
Luena,-11.7833,19.9167,57.72,89,11,2.42,AO,1619408790
Bilma,18.6853,12.9164,84.6,13,5,8.1,NE,1619408790
Benguela,-12.5763,13.4055,77.16,85,9,1.9,AO,1619408791
Longyearbyen,78.2186,15.6401,12.2,73,20,5.75,SJ,1619408791
Sos'va,59.1766,61.8558,42.82,64,14,11.68,RU,1619408792
Cabedelo,-6.9811,-34.8339,75.2,94,20,4.61,BR,1619408792
Chopda,21.25,75.3,97.52,10,91,4.21,IN,1619408793
Wanning,18.8003,110.3967,84.31,69,99,11.65,CN,1619408794
Constantine,36.365,6.6147,55.4,67,0,2.3,DZ,1619408794
Ponta do Sol,32.6667,-17.1,59.0,84,45,5.01,PT,1619408795
Upernavik,72.7868,-56.1549,26.85,75,40,4.72,GL,1619408795
Krasnosel'kup,65.7,82.4667,28.44,76,48,9.4,RU,1619408795
Scottsbluff,41.8666,-103.6672,62.01,39,1,11.5,US,1619408796
Popondetta,-8.7537,148.2534,84.85,61,100,3.58,PG,1619408797
Gobabis,-22.45,18.9667,58.19,29,1,11.27,NA,1619408797
Gimli,50.6336,-96.9907,41.0,75,100,8.05,CA,1619408797
Maragogi,-9.0122,-35.2225,77.59,83,44,7.07,BR,1619408798
Santa Comba,43.0331,-8.8093,55.99,77,12,2.51,ES,1619408798
Waspán,14.7419,-83.9717,73.2,86,66,3.31,NI,1619408799
Dodola,6.9833,39.1833,55.22,90,100,2.01,ET,1619408800
Neuquén,-38.9516,-68.0591,57.2,72,0,8.05,AR,1619408800
Chui,-33.6971,-53.4616,58.84,80,55,8.32,UY,1619408468
Kyren,51.6828,102.1408,41.16,53,93,2.55,RU,1619408801
Zyryanka,65.75,150.85,26.8,71,20,15.01,RU,1619408801
Moshupa,-24.7782,25.4155,46.4,66,0,4.61,BW,1619408802
Cayenne,4.9333,-52.3333,78.8,89,90,5.75,GF,1619408283
Darłowo,54.421,16.4107,39.99,56,33,9.53,PL,1619408803
Makakilo City,21.3469,-158.0858,80.6,57,40,8.05,US,1619408363
Denpasar,-8.65,115.2167,87.8,74,20,12.66,ID,1619408613
Ust-Maya,60.4167,134.5333,35.82,96,100,5.08,RU,1619408809
Alpinópolis,-20.8636,-46.3881,58.69,64,40,1.68,BR,1619408809
Duki,30.1541,68.5728,81.18,20,0,1.77,PK,1619408810
Susanville,40.4163,-120.653,36.0,87,90,10.36,US,1619408810
Aloleng,16.1307,119.7824,83.71,60,13,9.08,PH,1619408811
Channel-Port aux Basques,47.5702,-59.1367,38.35,91,100,20.45,CA,1619408811
Waipawa,-41.4122,175.5153,59.0,58,14,17.27,NZ,1619408811
Sigli,5.3848,95.9609,83.53,67,94,1.59,ID,1619408812
Orchard Homes,46.8633,-114.0484,43.0,87,40,6.91,US,1619408812
Aklavik,68.2191,-135.0107,14.0,79,100,8.05,CA,1619408813
Ust'-Karsk,52.7011,118.8077,54.72,45,100,7.52,RU,1619408813
Eenhana,-17.4667,16.3333,59.0,63,0,3.44,NA,1619408814
Klyavlino,54.2649,52.0267,40.08,63,1,16.2,RU,1619408814
Coquimbo,-29.9533,-71.3436,53.6,94,0,6.11,CL,1619408442
Wānkāner,22.6167,70.9333,90.0,62,0,6.91,IN,1619408815
Nayoro,44.3506,142.4578,42.8,31,75,6.91,JP,1619408815
Kumul,42.8,93.45,51.48,10,54,4.41,CN,1619408816
Kitgum,3.2783,32.8867,65.16,98,93,1.36,UG,1619408816
São Gabriel da Cachoeira,-0.1303,-67.0892,73.65,98,99,1.28,BR,1619408817
Salme,28.0369,85.0942,75.2,43,20,5.75,NP,1619408818
Camocim,-2.9022,-40.8411,75.56,87,8,6.4,BR,1619408540
Fallon,39.4735,-118.7774,51.8,32,75,13.8,US,1619408818
Vestmannaeyjar,63.4427,-20.2734,44.49,82,2,7.38,IS,1619408819
Nouadhibou,20.931,-17.0347,64.4,88,0,14.97,MR,1619408819
Khovd,48.0056,91.6419,36.57,19,1,2.42,MN,1619408820
Koregaon,18.65,74.0833,90.12,31,71,2.71,IN,1619408821
Turukhansk,65.8167,87.9833,23.09,70,32,3.38,RU,1619408821
Āsosa,10.0667,34.5333,61.45,86,100,5.37,ET,1619408821
Kaitangata,-46.2817,169.8464,48.0,68,100,8.01,NZ,1619408660
Jutaí,-5.1833,-68.9,72.3,98,100,1.97,BR,1619408822
New Amsterdam,6.25,-57.5167,75.13,92,100,4.65,GY,1619408823
Ruidoso,33.3317,-105.673,60.8,11,1,9.22,US,1619408823
Port Elizabeth,-33.918,25.5701,55.4,94,0,4.61,ZA,1619408527
Río Cuarto,-33.1307,-64.3499,48.99,83,0,5.99,AR,1619408824
Peace River,56.2501,-117.286,44.6,29,40,12.66,CA,1619408824
Soyo,-6.1349,12.3689,77.86,87,33,2.37,AO,1619408802
Okha,53.5739,142.9478,33.42,42,1,2.44,RU,1619408825
Portland,45.5234,-122.6762,53.6,66,75,9.22,US,1619408812
Mnogovershinnyy,53.9353,139.9242,34.23,67,50,4.45,RU,1619408826
Husavik,66.0449,-17.3389,35.6,87,90,6.91,IS,1619408826
Guarujá,-23.9931,-46.2564,75.99,26,87,4.99,BR,1619408827
San Patricio,28.017,-97.5169,72.0,88,75,11.5,US,1619408772
Havre-St-Pierre,50.2334,-63.5986,33.8,86,1,9.22,CA,1619408827
Kholodnyy,62.7167,147.95,14.72,64,32,3.85,RU,1619408828
Zulueta,42.7451,-1.5793,55.4,50,20,5.75,ES,1619408828
Mogwase,-25.185,27.2665,53.19,21,2,3.0,ZA,1619408834
Majene,-3.5403,118.9707,86.25,64,95,9.84,ID,1619408690
Fairbanks,64.8378,-147.7164,64.4,17,1,3.44,US,1619408616
Boca do Acre,-8.7522,-67.3978,73.24,98,78,1.16,BR,1619408835
Kudahuvadhoo,2.6708,72.8944,82.85,69,72,4.0,MV,1619408835
Paracuru,-3.41,-39.0306,77.0,80,23,1.01,BR,1619408836
Black River,18.0264,-77.8487,78.8,83,20,6.91,JM,1619408837
Yangi Marg`ilon,40.4272,71.7189,71.6,30,2,4.61,UZ,1619408838
Chuka,-0.3332,37.6459,59.58,83,58,4.25,KE,1619408838
Yumen,40.2833,97.2,51.46,9,7,19.17,CN,1619408839
Miraflores,19.2167,-98.8083,68.0,56,90,11.5,MX,1619408839
Klaksvík,62.2266,-6.589,42.8,100,100,20.71,FO,1619408840
Alice Springs,-23.7,133.8833,75.2,23,0,12.66,AU,1619408439
Semnan,35.5729,53.3971,74.43,31,86,1.1,IR,1619408840
Nioro,13.35,-15.75,74.34,38,11,8.1,GM,1619408841
Tezu,27.9167,96.1667,98.74,11,5,4.74,IN,1619408841
Najrān,17.4924,44.1277,73.4,49,40,2.3,SA,1619408842
Toamasina,-18.1667,49.3833,73.4,100,75,14.97,MG,1619408842
Tromsø,69.6496,18.957,32.0,93,75,4.61,NO,1619408843
Port Hardy,50.6996,-127.4199,50.0,87,75,2.3,CA,1619408843
Leningradskiy,69.3833,178.4167,29.28,88,94,1.79,RU,1619408844
Gouré,13.9835,10.2704,81.39,17,53,6.98,NE,1619408844
Pacific Grove,36.6177,-121.9166,53.6,76,90,9.22,US,1619408704
Tiznit Province,29.5833,-9.5,56.07,79,85,1.88,MA,1619408783
San Miguel de Cauri,-10.1,-76.5833,45.66,91,81,2.64,PE,1619408845
Plácido de Castro,-10.3353,-67.1856,72.16,98,70,5.53,BR,1619408846
Ceyhan,37.0247,35.8175,66.99,93,0,3.44,TR,1619408846
Viedma,-40.8135,-62.9967,53.89,76,25,10.18,AR,1619408847
Ponezhukay,44.8876,39.3855,46.4,93,90,6.71,RU,1619408847
Olafsvik,64.8945,-23.7142,39.47,87,12,11.81,IS,1619408848
Port Hawkesbury,45.6169,-61.3485,44.01,100,90,9.22,CA,1619408848
Icatu,-2.7758,-44.0658,78.8,94,0,3.44,BR,1619408849
Lüderitz,-26.6481,15.1594,61.7,88,96,3.42,NA,1619408449
Oranjemund,-28.55,16.4333,62.62,85,100,5.82,NA,1619408849
Kiryat Gat,31.61,34.7642,68.0,100,17,1.99,IL,1619408222
Rio Grande,-32.035,-52.0986,59.0,89,55,15.88,BR,1619408684
Rognan,67.0953,15.3878,35.01,81,99,4.09,NO,1619408850
Usab,12.3308,123.5806,84.56,62,82,7.34,PH,1619408851
Santarém,-2.4431,-54.7083,80.6,89,40,2.3,BR,1619408851
Kruisfontein,-34.0033,24.7314,64.15,57,100,2.91,ZA,1619408852
Seoul,37.5683,126.9778,68.0,52,75,6.91,KR,1619408553
Vuktyl,63.8567,57.3094,41.36,80,100,11.92,RU,1619408853
Ferrol,43.4832,-8.2369,57.0,96,75,2.51,ES,1619408853
Kapuskasing,49.4169,-82.4331,24.8,86,6,1.14,CA,1619408853
Batemans Bay,-35.7167,150.1833,69.01,48,0,7.07,AU,1619408854
Jinxiang,27.4327,120.6062,67.15,69,32,8.43,CN,1619408854
Kirensk,57.7853,108.1119,36.88,93,100,7.02,RU,1619408855
Lompoc,34.6391,-120.4579,53.6,82,100,6.91,US,1619408549
Cadillac,44.2519,-85.4012,32.0,55,75,5.28,US,1619408676
Sawang Daen Din,17.4753,103.4575,95.0,55,100,2.68,TH,1619408861
Zabul Province,32.25,67.25,69.98,9,2,4.59,AF,1619408861
Nemuro,43.3236,145.575,42.8,31,20,14.97,JP,1619408862
Fria,10.4167,-13.5833,72.72,80,36,0.76,GN,1619408862
Mangai,-4.05,19.5333,69.24,99,100,1.99,CD,1619408863
Aswān,24.0934,32.907,79.66,25,0,13.15,EG,1619408863
Sitka,57.0531,-135.33,55.4,47,1,5.75,US,1619408448
Bambanglipuro,-7.95,110.2833,85.93,62,5,6.96,ID,1619408864
Verkhoyansk,67.5447,133.385,34.38,99,100,4.74,RU,1619408864
Cabo Rojo,18.0866,-67.1457,79.0,79,12,9.28,PR,1619408865
Ukiah,39.1502,-123.2078,50.0,62,75,5.75,US,1619408865
Siguiri,11.6667,-9.5,82.62,48,81,4.59,GN,1619408866
Harkány,45.85,18.2367,48.0,68,99,1.01,HU,1619408866
Mogadishu,2.0371,45.3438,83.53,72,64,10.45,SO,1619408642
Curvelo,-18.7564,-44.4308,65.89,49,39,0.65,BR,1619408867
Tigil',57.8,158.6667,31.91,85,100,4.56,RU,1619408868
Kilembe,0.2,30.0,60.01,84,95,3.24,UG,1619408868
Esim,4.8699,-2.2405,79.92,84,100,5.3,GH,1619408869
Mathbaria,22.2876,89.9593,101.03,20,1,7.96,BD,1619408869
Kortkeros,61.8106,51.5806,37.4,87,75,8.95,RU,1619408870
Huilong,31.8111,121.655,73.99,64,7,3.0,CN,1619408870
Leshukonskoye,64.8989,45.7622,39.7,95,100,4.88,RU,1619408870
Walvis Bay,-22.9575,14.5053,60.01,100,21,6.91,NA,1619408871
Altay,47.8667,88.1167,42.35,23,40,3.65,CN,1619408871
Itaituba,-4.2761,-55.9836,73.29,98,79,1.39,BR,1619408872
Lhokseumawe,5.1801,97.1507,85.23,65,96,2.28,ID,1619408769
São Félix do Xingu,-6.6447,-51.995,71.96,98,91,1.66,BR,1619408873
Avon Park,27.5959,-81.5062,73.4,83,1,4.61,US,1619408873
Ulaangom,49.9811,92.0667,38.93,50,0,0.67,MN,1619408875
Ulaanbaatar,47.9077,106.8832,30.2,74,75,26.84,MN,1619408855
Goderich,43.7501,-81.7165,32.0,69,32,10.36,CA,1619408874
Goundi,9.3627,17.366,79.47,65,83,5.68,TD,1619408876
Puerto Escondido,15.85,-97.0667,82.4,78,40,4.61,MX,1619408876
Fraserburgh,57.6874,-2.0184,39.99,75,100,8.95,GB,1619408876
Geraldton,-28.7667,114.6,89.6,22,2,8.05,AU,1619408619
Yulara,-25.2406,130.9889,75.2,23,0,14.97,AU,1619408877
Dzhebariki-Khaya,62.2167,135.8,33.06,94,100,6.24,RU,1619408878
Nacala,-14.5428,40.6728,72.3,95,91,5.28,MZ,1619408878
Dédougou,12.4667,-3.4667,89.17,29,96,5.66,BF,1619408878
Meadow Lake,34.8014,-106.5436,73.4,6,75,17.27,US,1619408712
Teguise,29.0605,-13.564,64.4,82,0,6.91,ES,1619408879
Sur,22.5667,59.5289,88.86,38,19,3.74,OM,1619408795
Saurimo,-9.6608,20.3916,63.95,93,72,2.98,AO,1619408881
Warrnambool,-38.3833,142.4833,57.0,95,97,1.01,AU,1619408882
San Quintín,30.4833,-115.95,57.24,83,26,12.64,MX,1619408882
Nabire,-3.3667,135.4833,85.21,66,80,5.03,ID,1619408883
Chara,56.9064,118.2631,35.2,99,100,2.06,RU,1619408883
Chaumont,48.1167,5.1333,44.01,55,100,12.1,FR,1619408889
Acaraú,-2.8856,-40.12,76.91,84,8,8.21,BR,1619408889
Porto Murtinho,-21.6989,-57.8825,70.36,69,100,6.13,BR,1619408890
Thinadhoo,0.5333,72.9333,82.44,63,64,3.29,MV,1619408890
Gao,16.6362,1.637,82.31,7,28,5.93,ML,1619408890
Abu Dhabi,24.4667,54.3667,82.4,36,0,2.3,AE,1619408689
El Dorado,38.7666,-120.5177,39.99,99,100,1.99,US,1619408891
Caravelas,-17.7125,-39.2481,74.73,86,2,6.26,BR,1619408892
Turan,16.0678,108.2208,89.6,70,40,5.75,VN,1619408648
Mocorito,25.4833,-107.9167,69.01,60,100,2.24,MX,1619408893
Hay River,60.8156,-115.7999,26.6,86,100,1.14,CA,1619408893
Mareeba,-17.0,145.4333,75.2,94,75,12.66,AU,1619408484
Chiredzi,-21.05,31.6667,58.6,54,1,3.56,ZW,1619408894
Maniago,46.1706,12.7078,59.0,69,100,1.01,IT,1619408894
Rio Brilhante,-21.8019,-54.5464,65.88,91,100,4.79,BR,1619408895
Tāybād,34.74,60.7756,74.8,19,81,13.13,IR,1619408784
Mezen',65.8522,44.24,40.82,93,100,4.9,RU,1619408895
Kisangani,0.5167,25.2,68.79,99,100,1.36,CD,1619408896
Chicama,-7.8447,-79.1469,68.32,80,11,7.23,PE,1619408896
Henties Bay,-22.116,14.2845,60.01,93,3,1.99,NA,1619408897
Srednekolymsk,67.45,153.6833,26.58,66,12,8.79,RU,1619408898
Sakakah,29.9697,40.2064,73.4,25,0,9.22,SA,1619408898
Plátanos,37.6667,21.6167,48.2,93,20,4.43,GR,1619408899
Ushibukamachi,32.1906,130.0228,66.34,44,100,1.63,JP,1619408900
Antibes,43.5624,7.1278,57.2,77,90,10.36,FR,1619408698
Copperas Cove,31.1241,-97.9031,73.4,64,1,8.05,US,1619408900
Khasan,42.4308,130.6434,50.09,56,80,13.18,RU,1619408901
Simao,22.7886,100.9748,86.04,37,96,4.45,CN,1619408901
Birao,10.2849,22.7882,73.53,71,99,2.8,CF,1619408902
Longonjo,-12.9067,15.2533,59.49,74,18,1.7,AO,1619408902
Gisborne,-38.6533,178.0042,64.99,48,29,1.99,NZ,1619408903
Yavaros,26.7,-109.5167,77.0,31,100,9.69,MX,1619408903
Laibin,23.7,109.2667,64.96,93,100,10.18,CN,1619408904
Morón,-34.6534,-58.6198,61.0,98,9,4.21,AR,1619408904
Dumai,1.6833,101.45,83.79,80,85,0.11,ID,1619408905
Matagami,49.7502,-77.6328,19.4,93,75,18.41,CA,1619408855
Tāndā,26.55,82.65,98.11,9,23,8.59,IN,1619408905
Samarai,-10.6167,150.6667,85.98,69,72,12.06,PG,1619408906
Lampazos de Naranjo,27.0167,-100.5167,78.12,35,76,16.02,MX,1619408906
Lubango,-14.9172,13.4925,61.54,65,74,2.75,AO,1619408907
Zonguldak,41.25,31.8333,43.38,97,100,3.49,TR,1619408907
Tayport,56.447,-2.8797,39.99,87,0,6.91,GB,1619408908
Santa Catalina,9.3337,122.8637,86.0,74,40,9.22,PH,1619408908
Rudnogorsk,57.2639,103.7519,35.6,85,100,9.86,RU,1619408909
Vanimo,-2.6741,141.3028,83.46,66,100,5.12,PG,1619408839
Voh,-20.9667,164.7,76.69,68,81,11.34,NC,1619408915
Karla,59.3723,24.9275,34.0,100,90,5.75,EE,1619408915
Aleksandrov Gay,50.147,48.5704,46.27,52,100,4.09,RU,1619408916
Chake Chake,-5.2459,39.7666,77.09,88,77,8.12,TZ,1619408916
Yuzhno-Kurilsk,44.0306,145.8556,35.13,59,16,18.75,RU,1619408917
Ancud,-41.8697,-73.8203,53.01,100,90,2.3,CL,1619408917
Karak,31.1667,35.75,57.2,58,1,4.61,JO,1619408918
Lugo,43.0,-7.5,48.0,100,100,1.16,ES,1619408918
Bor,56.3567,44.0669,37.4,65,0,15.66,RU,1619408919
Tres Arroyos,-38.3739,-60.2798,54.45,77,91,5.61,AR,1619408919
Abrau-Dyurso,44.69,37.59,46.4,87,100,11.18,RU,1619408920
Doha,25.2867,51.5333,86.0,61,50,4.61,QA,1619408704
Gold Coast,-28.0,153.4333,75.2,46,40,13.8,AU,1619408921
Kieta,-6.2167,155.6333,85.73,66,23,6.82,PG,1619408921
Brae,60.3964,-1.353,44.6,87,100,6.91,GB,1619408922
Adiaké,5.2863,-3.304,80.6,94,20,3.44,CI,1619408922
Masuguru,-11.3667,38.4167,70.56,98,74,2.91,TZ,1619408922
Saint-Doulchard,47.1037,2.352,52.0,50,0,18.41,FR,1619408923
Bogotol,56.2078,89.5342,36.86,97,100,6.42,RU,1619408923
Kharp,66.8014,65.8081,33.26,99,100,7.11,RU,1619408924
Zhigansk,66.7697,123.3711,25.68,94,100,15.99,RU,1619408510
Kualakapuas,-3.0091,114.3876,86.0,74,40,3.44,ID,1619408925
Balyqshy,47.0667,51.8667,51.8,76,40,20.13,KZ,1619408926
Springfield,37.2153,-93.2982,64.4,48,1,19.57,US,1619408685
Las Cruces,32.3123,-106.7783,75.99,8,1,8.05,US,1619408909
Huarmey,-10.0681,-78.1522,67.19,85,10,9.15,PE,1619408927
Zharkent,44.1628,80.0,63.28,19,28,3.6,KZ,1619408927
Moree,-29.4667,149.85,75.2,27,0,4.61,AU,1619408928
Kotido,2.9806,34.1331,66.06,90,100,3.2,UG,1619408928
Taoudenni,22.6783,-3.9836,85.69,16,8,8.03,ML,1619408929
Santander Jiménez,24.2167,-98.4667,73.15,92,87,10.2,MX,1619408929
Asău,46.4333,26.4,37.99,63,64,1.01,RO,1619408930
Ixtapa,20.7,-105.2,78.01,78,40,0.72,MX,1619408755
Goya,-29.14,-59.2626,51.13,76,0,4.7,AR,1619408930
Gbely,48.718,17.1163,39.0,60,76,4.23,SK,1619408931
San Jose,37.3394,-121.895,53.6,76,75,3.04,US,1619408669
Port Macquarie,-31.4333,152.9167,72.0,57,8,1.01,AU,1619408931
Deputatsky,69.3,139.9,28.2,81,74,3.71,RU,1619408839
Menongue,-14.6585,17.691,56.61,62,21,2.73,AO,1619408784
Aripuanã,-9.1667,-60.6333,71.69,98,100,3.58,BR,1619408932
Mmabatho,-25.85,25.6333,46.4,57,0,4.61,ZA,1619408933
Gal'bshtadt,53.2264,78.9845,52.81,34,100,15.55,RU,1619408933
Tual,-5.6667,132.75,83.05,70,73,8.84,ID,1619408934
Saquena,-4.6667,-73.5167,72.79,99,100,2.53,PE,1619408934
Tagusao,9.1924,117.8141,84.61,68,24,8.61,PH,1619408935
Helena,46.5927,-112.0361,42.8,81,90,4.61,US,1619408707
Strelka,58.0728,93.0344,36.55,95,100,6.4,RU,1619408941
Bonthe,7.5264,-12.505,80.51,83,98,7.14,SL,1619408495
Dali,25.7,100.1833,78.31,19,0,6.24,CN,1619408942
Hirara,24.8,125.2833,77.0,57,20,12.66,JP,1619408942
Beaupré,47.0443,-70.8953,43.0,93,100,2.3,CA,1619408943
Sinnamary,5.3833,-52.95,77.09,89,100,9.8,GF,1619408943
Heiligenhafen,54.3667,10.9833,34.0,93,7,2.3,DE,1619408944
Grand-Santi,4.25,-54.3833,73.17,99,100,1.07,GF,1619408944
Villarrobledo,39.2699,-2.6012,50.0,95,100,3.0,ES,1619408945
Ndago,-4.6,34.35,59.38,92,72,3.69,TZ,1619408945
Annau,37.8876,58.516,73.4,35,1,4.61,TM,1619408946
Maglajani,44.9486,17.3494,48.2,61,0,4.61,BA,1619408946
Pamplona,42.8169,-1.6432,55.4,50,20,5.75,ES,1619408721
Camacha,33.0833,-16.3333,62.6,77,40,17.27,PT,1619408947
Puerto del Rosario,28.5004,-13.8627,66.2,77,20,5.75,ES,1619408947
Jiaozuo,35.2397,113.2331,73.54,41,26,7.92,CN,1619408948
Nanchang,28.6833,115.8833,67.75,77,94,3.71,CN,1619408948
Sargatskoye,55.6101,73.4972,51.89,59,100,10.67,RU,1619408949
Kayes,14.0,-11.0,89.17,20,37,6.17,ML,1619408949
San Policarpo,12.1791,125.5072,81.82,66,12,12.26,PH,1619408950
Ambilobe,-13.2,49.05,73.18,82,91,3.11,MG,1619408950
São João da Barra,-21.6403,-41.0511,73.51,92,67,5.79,BR,1619408951
Kahului,20.8947,-156.47,78.8,65,75,20.71,US,1619408853
Novy Urengoy,66.0833,76.6333,32.07,92,100,14.09,RU,1619408951
Batagay,67.6333,134.6333,32.23,98,100,6.51,RU,1619408952
Inhambane,-23.865,35.3833,67.77,92,0,4.05,MZ,1619408952
Ngunguru,-35.6167,174.5,66.0,70,41,3.0,NZ,1619408953
Bo Phloi,14.3236,99.5161,97.0,41,83,3.98,TH,1619408953
Kuala Kangsar,4.7667,100.9333,87.8,66,20,3.44,MY,1619408954
Pottsville,40.6857,-76.1955,55.4,57,1,9.22,US,1619408954
La Libertad,-2.2333,-80.9,73.45,83,69,5.08,EC,1619408955
Bereket,39.2446,55.5154,78.06,32,2,5.48,TM,1619408955
Poso,-1.3959,120.7524,88.02,59,94,5.77,ID,1619408956
Puerto El Triunfo,13.2833,-88.55,80.6,83,40,2.3,SV,1619408956
Madimba,-10.4,40.3333,73.4,94,75,12.66,TZ,1619408957
Marabá,-5.3686,-49.1178,72.7,98,92,1.9,BR,1619408957
Beausejour,50.0622,-96.5167,42.01,60,100,5.75,CA,1619408958
Comodoro Rivadavia,-45.8667,-67.5,53.6,71,0,4.61,AR,1619408701
Lukovetskiy,64.2956,41.9211,37.4,93,90,6.71,RU,1619408958
Westport,41.1415,-73.3579,51.8,76,40,6.91,US,1619408747
Saint Anthony,45.0205,-93.218,43.0,52,90,9.22,US,1619408959
Mēga,4.05,38.3,59.38,82,51,8.01,ET,1619408960
Shingū,33.7333,135.9833,60.8,51,20,19.57,JP,1619408960
Fort-Shevchenko,44.5086,50.263,58.24,70,86,12.06,KZ,1619408961
Salalah,17.0151,54.0924,82.4,69,40,1.14,OM,1619408961
Twentynine Palms,34.1356,-116.0542,66.2,32,1,18.41,US,1619408962
Prieska,-29.6641,22.7474,62.82,28,76,4.47,ZA,1619408962
Ternate,0.8,127.4,85.51,66,50,7.0,ID,1619408962
Plettenberg Bay,-34.0527,23.3716,64.33,68,100,3.11,ZA,1619408968
Chumikan,54.7183,135.315,42.24,72,91,9.04,RU,1619408968
Wukari,7.85,9.7833,77.9,76,67,4.68,NG,1619408969
Durrës,41.3231,19.4414,44.6,87,0,3.44,AL,1619408969
Rustenburg,-25.6676,27.2421,54.43,29,27,4.72,ZA,1619408970
Prainha,-1.8,-53.48,74.28,93,99,2.06,BR,1619408970
Kiunga,-6.1219,141.2906,92.37,47,79,2.8,PG,1619408971
Sarakhs,36.5449,61.1577,66.2,42,1,2.3,IR,1619408971
Vicuña,-30.0319,-70.7081,53.6,94,0,2.26,CL,1619408741
Saint-Ambroise,48.5501,-71.3324,44.01,93,100,4.61,CA,1619408972
Amapá,1.0,-52.0,70.05,99,100,0.89,BR,1619408972
Lewisporte,49.2499,-55.0482,41.0,69,40,4.61,CA,1619408973
