City,Lat,Lng,Max Temp,Humidity,Cloudiness,Wind Speed,Country,Date
Mataura,-46.1927,168.8643,55.99,79,100,13.0,NZ,1619581507
Saint-François,46.4154,3.9054,50.0,93,100,3.44,FR,1619581508
Barrow,71.2906,-156.7887,19.4,86,90,3.44,US,1619581508
Ampanihy,-24.7,44.75,70.38,67,0,5.55,MG,1619581508
Bambous Virieux,-20.3428,57.7575,75.2,94,75,18.41,MU,1619581509
Dongsheng,39.8161,109.9776,50.5,13,23,24.32,CN,1619581510
Hermanus,-34.4187,19.2345,55.99,92,28,4.72,ZA,1619581510
Rikitea,-23.1203,-134.9692,76.73,74,100,11.65,PF,1619581511
Clyde River,70.4692,-68.5914,14.0,73,1,6.91,CA,1619581511
Airai,-8.9266,125.4092,75.97,35,8,2.04,TL,1619581511
Chinsali,-10.5414,32.0816,59.79,98,23,4.27,ZM,1619581512
Isangel,-19.55,169.2667,80.6,65,40,11.5,VU,1619581512
Beisfjord,68.3751,17.5988,21.2,100,75,1.14,NO,1619581513
Seredka,58.1584,28.1858,37.4,87,20,8.95,RU,1619581513
Yulara,-25.2406,130.9889,73.4,25,0,11.5,AU,1619581514
Hithadhoo,-0.6,73.0833,82.47,66,97,0.6,MV,1619581514
Akçaabat,41.0212,39.5715,53.6,87,0,6.91,TR,1619581515
Bonthe,7.5264,-12.505,78.17,78,100,2.77,SL,1619581515
Punta Arenas,-53.15,-70.9167,39.2,93,40,6.91,CL,1619581307
Albany,42.6001,-73.9662,55.0,40,86,1.5,US,1619581335
Atuona,-9.8,-139.0333,79.97,74,24,12.44,PF,1619581517
Magadan,59.5667,150.8,29.95,78,12,1.57,RU,1619581517
Vaini,-21.2,-175.2,73.4,88,90,12.66,TO,1619581518
Tabou,4.423,-7.3528,78.93,88,100,7.29,CI,1619581518
George Town,5.4112,100.3354,88.0,70,20,2.3,MY,1619581519
Santa Cruz de la Sierra,-17.8,-63.1667,68.0,73,75,5.75,BO,1619581335
Aberdeen,57.1437,-2.0981,37.99,87,85,8.05,GB,1619581520
Chui,-33.6971,-53.4616,51.62,85,0,6.33,UY,1619581520
Vanavara,60.34,102.2797,36.14,55,4,5.82,RU,1619581520
Guerrero Negro,27.9769,-114.0611,58.84,76,0,15.64,MX,1619581521
Busselton,-33.65,115.3333,73.0,60,3,4.72,AU,1619581522
Fountain Hills,33.6117,-111.7174,69.8,19,1,5.75,US,1619581522
Sinnamary,5.3833,-52.95,75.2,90,96,2.86,GF,1619581523
Tiksi,71.6872,128.8694,19.13,81,100,15.12,RU,1619581523
Taltal,-25.4,-70.4833,61.09,84,12,3.87,CL,1619581523
Butaritari,3.0707,172.7902,82.47,76,93,8.14,KI,1619581524
Touros,-5.1989,-35.4608,75.2,94,40,4.61,BR,1619581524
Dikson,73.5069,80.5464,32.68,88,100,19.22,RU,1619581525
Road Town,18.4167,-64.6167,78.01,84,1,5.99,VG,1619581525
Ixtapa,20.7,-105.2,75.2,88,90,2.26,MX,1619581526
Nyurba,63.2842,118.3319,31.75,52,60,4.03,RU,1619581526
Griffith,41.5284,-87.4237,75.2,56,75,16.11,US,1619581527
Ushuaia,-54.8,-68.3,41.0,87,40,18.41,AR,1619581403
Kishanpur,25.65,81.0167,103.1,4,0,10.51,IN,1619581528
Castro,-24.7911,-50.0119,52.72,97,4,4.9,BR,1619581528
Chapais,49.7834,-74.8492,42.8,65,75,5.75,CA,1619581528
Ballina,-28.8667,153.5667,64.4,94,40,11.5,AU,1619581534
Upernavik,72.7868,-56.1549,24.49,89,98,7.63,GL,1619581534
Taos,36.4072,-105.5731,41.0,65,1,12.66,US,1619581370
Kalikino,52.9493,39.8269,37.0,70,34,9.37,RU,1619581535
Samarai,-10.6167,150.6667,79.61,79,99,7.92,PG,1619581536
Coyhaique,-45.5752,-72.0662,42.39,94,31,4.63,CL,1619581536
East London,-33.0153,27.9116,60.8,72,0,8.05,ZA,1619581536
Kavieng,-2.5744,150.7967,84.11,70,27,7.9,PG,1619581537
Sisophon,13.5859,102.9737,90.52,53,97,4.32,KH,1619581537
Port Blair,11.6667,92.75,86.0,84,40,4.61,IN,1619581538
Saskylakh,71.9167,114.0833,32.36,84,100,9.84,RU,1619581538
Murashi,59.3999,48.9615,36.81,96,100,2.17,RU,1619581539
Fairbanks,64.8378,-147.7164,48.2,18,1,3.44,US,1619581539
Jamestown,42.097,-79.2353,66.2,48,20,21.85,US,1619581513
Sobolevo,54.4299,31.8996,35.78,98,100,7.25,RU,1619581540
Hobart,-42.8794,147.3294,66.99,51,75,10.36,AU,1619581541
Yar-Sale,66.8333,70.8333,31.32,96,100,8.66,RU,1619581541
Babu,24.4167,111.5167,65.71,93,100,5.79,CN,1619581542
Kapaa,22.0752,-159.319,75.0,78,75,5.75,US,1619581542
Lhokseumawe,5.1801,97.1507,86.11,63,92,2.1,ID,1619581542
Mahébourg,-20.4081,57.7,75.2,94,75,18.41,MU,1619581543
Hilo,19.7297,-155.09,80.6,50,90,3.44,US,1619581544
Lingao,19.9103,109.6859,83.01,69,64,5.12,CN,1619581544
Sisimiut,66.9395,-53.6735,31.3,91,22,4.12,GL,1619581544
Carnarvon,-24.8667,113.6333,91.4,19,0,8.05,AU,1619581545
Srinagar,34.0833,74.8167,62.47,44,31,2.28,IN,1619581545
New Norfolk,-42.7826,147.0587,66.99,70,98,5.99,AU,1619581546
Namatanai,-3.6667,152.4333,84.22,71,41,7.99,PG,1619581546
Pozhva,59.0912,56.0847,37.92,92,100,5.46,RU,1619581547
Canyon Lake,29.8752,-98.2625,75.0,87,100,25.99,US,1619581547
Sieradz,51.5958,18.7302,35.01,69,0,3.0,PL,1619581548
Khatanga,71.9667,102.5,31.35,83,84,6.24,RU,1619581548
Eyrarbakki,63.863,-21.1481,42.8,75,90,10.36,IS,1619581549
Toora-Khem,52.4675,96.11,42.66,70,100,2.68,RU,1619581549
Lebu,-37.6167,-73.65,54.54,93,61,2.13,CL,1619581550
Sibut,5.718,19.0739,71.2,91,100,2.42,CF,1619581550
Yellowknife,62.456,-114.3525,17.6,49,90,13.8,CA,1619581371
Shelburne,44.0787,-80.2041,46.99,69,100,6.29,CA,1619581361
Qixingtai,30.4135,111.8874,78.01,45,100,10.49,CN,1619581551
Kissidougou,9.1848,-10.0999,70.7,92,100,2.71,GN,1619581552
Saint George,37.1041,-113.5841,60.01,36,75,16.11,US,1619581261
Qaanaaq,77.484,-69.3632,30.63,91,100,5.79,GL,1619581553
Ketchikan,55.3422,-131.6461,46.4,100,90,17.27,US,1619581553
Pisco,-13.7,-76.2167,64.4,94,75,5.75,PE,1619581554
Martapura,-3.4167,114.85,86.0,74,40,8.05,ID,1619581554
Los Llanos de Aridane,28.6585,-17.9182,62.6,67,0,6.91,ES,1619581555
Half Moon Bay,37.4636,-122.4286,53.01,87,1,5.75,US,1619581355
Mugur-Aksy,50.35,90.5,41.49,77,97,7.45,RU,1619581560
Hamilton,39.1834,-84.5333,72.0,43,90,10.36,US,1619581436
Polis,35.0367,32.4264,59.0,63,0,6.91,CY,1619581561
Tuktoyaktuk,69.4541,-133.0374,15.8,73,20,11.5,CA,1619581562
Bubaque,11.2833,-15.8333,78.15,62,100,11.27,GW,1619581562
Iralaya,15.0,-83.2333,78.98,76,46,7.31,HN,1619581563
Goderich,43.7501,-81.7165,59.0,67,100,9.22,CA,1619581563
Bluff,-46.6,168.3333,55.99,79,69,13.0,NZ,1619581564
Kirakira,-10.4544,161.9205,82.98,70,98,8.12,SB,1619581564
Cape Town,-33.9258,18.4232,57.99,93,0,2.3,ZA,1619581372
Avera,33.194,-82.5271,66.2,88,1,6.91,US,1619581565
Puerto Ayora,-0.7393,-90.3518,75.02,91,33,7.29,EC,1619581565
Takoradze,4.8845,-1.7554,81.14,84,93,6.8,GH,1619581566
Manuk Mangkaw,4.8,119.85,83.95,69,54,6.04,PH,1619581566
Bredasdorp,-34.5322,20.0403,46.4,93,71,3.44,ZA,1619581567
Tsumeb,-19.2333,17.7167,61.68,56,0,7.56,NA,1619581567
Erbil,36.1926,44.0106,59.0,44,0,2.3,IQ,1619581568
Shaki,41.0833,47.1667,55.4,88,90,2.3,AZ,1619581568
Tasiilaq,65.6145,-37.6368,32.0,86,99,4.61,GL,1619581569
Saint Paul Harbor,57.79,-152.4072,41.38,94,97,12.37,US,1619581569
Nakanojōmachi,36.5833,138.85,66.0,53,100,4.5,JP,1619581570
Nouakchott,18.0858,-15.9785,68.0,77,0,16.11,MR,1619581570
Geraldton,-28.7667,114.6,86.0,21,2,5.75,AU,1619581571
Port Alfred,-33.5906,26.891,64.49,75,100,6.38,ZA,1619581571
Pachino,36.7186,15.0907,57.2,88,20,3.44,IT,1619581571
Chara,56.9064,118.2631,24.1,68,100,12.12,RU,1619581572
Naze,28.3667,129.4833,75.2,69,75,11.5,JP,1619581572
Coruripe,-10.1256,-36.1756,76.05,89,50,7.11,BR,1619581573
Avarua,-21.2078,-159.775,80.6,78,91,6.91,CK,1619581573
Mabaruma,8.2,-59.7833,71.53,95,82,2.08,GY,1619581574
Makkah al Mukarramah,21.4267,39.8261,80.73,50,0,8.52,SA,1619581574
Inhambane,-23.865,35.3833,73.4,94,40,6.02,MZ,1619581575
San Luis,-33.295,-66.3356,57.49,59,0,7.76,AR,1619581576
Bosaso,11.2842,49.1816,85.73,63,77,7.36,SO,1619581576
Obo,5.3998,26.4869,69.06,84,93,3.4,CF,1619581576
Mayor Pablo Lagerenza,-19.9309,-60.7718,59.38,54,0,4.9,PY,1619581577
Jalalabad,34.4265,70.4515,84.78,25,2,1.86,AF,1619581577
Marechal Cândido Rondon,-24.5561,-54.0567,54.73,65,0,4.92,BR,1619581578
San Patricio,28.017,-97.5169,78.8,89,90,17.27,US,1619581578
Saldanha,-33.0117,17.9442,51.8,93,41,4.61,ZA,1619581579
Souillac,-20.5167,57.5167,75.2,94,75,18.41,MU,1619581579
Vestmanna,62.1564,-7.1664,37.4,81,75,12.66,FO,1619581580
Thinadhoo,0.5333,72.9333,82.42,65,97,3.33,MV,1619581580
Nikolskoye,59.7035,30.7861,34.0,86,90,3.44,RU,1619581581
Mogocha,53.7333,119.7667,28.94,78,100,11.12,RU,1619581581
Vila Velha,-20.3297,-40.2925,73.4,94,0,5.55,BR,1619581582
Yumbe,3.4651,31.2469,65.52,97,100,1.14,UG,1619581582
Balsas,-7.5325,-46.0356,73.22,90,78,3.65,BR,1619581582
La Ronge,55.1001,-105.2842,21.2,35,100,4.61,CA,1619581583
Nome,64.5011,-165.4064,37.0,80,1,6.91,US,1619581588
Harper,4.375,-7.7169,79.56,86,100,7.94,LR,1619581589
Grindavik,63.8424,-22.4338,42.8,100,90,6.91,IS,1619581589
Hong Kong,22.2855,114.1577,80.01,84,94,1.99,HK,1619581352
Saint Anthony,45.0205,-93.218,44.01,87,90,11.5,US,1619581590
Mount Gambier,-37.8333,140.7667,60.8,63,75,4.61,AU,1619581577
Nizhniy Kuranakh,58.8353,125.4869,25.39,91,100,8.77,RU,1619581591
Belyy Yar,53.6039,91.3903,46.4,100,75,4.47,RU,1619581591
Along,28.1667,94.7667,91.0,29,91,0.63,IN,1619581592
Cayenne,4.9333,-52.3333,73.4,94,20,3.44,GF,1619581592
Persianovskiy,47.5137,40.1075,46.4,76,40,6.71,RU,1619581592
Klerksdorp,-26.8521,26.6667,54.77,47,0,3.96,ZA,1619581593
Kiryat Gat,31.61,34.7642,59.0,83,0,1.3,IL,1619581593
Samagaltay,50.6022,95.0047,43.45,64,100,5.66,RU,1619581594
Bengkulu,-3.8004,102.2655,85.17,66,59,4.7,ID,1619581594
Grand-Lahou,5.1367,-5.0242,79.56,87,81,7.36,CI,1619581595
Tomatlán,19.9333,-105.25,71.76,82,92,1.9,MX,1619581595
Maltahöhe,-24.8333,16.9833,60.28,46,7,2.71,NA,1619581596
Vila Franca do Campo,37.7167,-25.4333,59.0,82,75,9.22,PT,1619581596
Narsaq,60.9167,-46.05,39.2,70,18,6.91,GL,1619581597
Pangnirtung,66.1451,-65.7125,15.33,81,6,7.78,CA,1619581597
Manavālakurichi,8.1333,77.3,89.6,66,20,4.61,IN,1619581598
Severo-Yeniseyskiy,60.3725,93.0408,38.8,80,57,4.85,RU,1619581598
Beringovskiy,63.05,179.3167,33.76,90,99,7.85,RU,1619581599
Mar del Plata,-38.0023,-57.5575,59.0,93,0,5.75,AR,1619581345
Aljezur,37.3191,-8.8033,56.75,86,26,7.34,PT,1619581599
Korhogo,9.45,-5.6333,77.4,74,99,5.21,CI,1619581600
Talcahuano,-36.7167,-73.1167,51.8,100,0,3.44,CL,1619581600
Dolgoprudnyy,55.9041,37.5606,33.8,86,0,11.18,RU,1619581601
Baykit,61.67,96.37,39.02,79,80,7.0,RU,1619581601
Galesong,-5.3166,119.3661,89.6,62,20,2.3,ID,1619581602
São Filipe,14.8961,-24.4956,71.8,76,48,8.66,CV,1619581602
Richards Bay,-28.783,32.0377,70.16,88,95,8.16,ZA,1619581603
Ilulissat,69.2167,-51.1,35.6,69,40,4.61,GL,1619581582
Ahipara,-35.1667,173.1667,62.31,57,14,10.87,NZ,1619581604
Tuatapere,-46.1333,167.6833,55.99,79,90,13.0,NZ,1619581604
Severo-Kuril'sk,50.6789,156.125,34.32,94,100,16.04,RU,1619581605
Ulladulla,-35.35,150.4667,66.99,68,75,10.36,AU,1619581605
Bereda,43.2686,-7.5406,50.0,97,100,5.99,ES,1619581606
Kununurra,-15.7667,128.7333,91.4,55,40,10.36,AU,1619581606
Arraial do Cabo,-22.9661,-42.0278,72.86,82,98,6.33,BR,1619581607
Akdağmadeni,39.6603,35.8836,52.14,56,54,4.18,TR,1619581607
Tezu,27.9167,96.1667,97.56,17,26,5.19,IN,1619581608
Kuching,1.55,110.3333,86.0,74,40,3.44,MY,1619581608
Olafsvik,64.8945,-23.7142,43.52,76,65,5.55,IS,1619581609
Santa Marta,11.2408,-74.199,82.4,69,40,13.8,CO,1619581609
Careiro da Várzea,-3.2003,-59.8119,78.8,94,75,3.44,BR,1619581610
Alyangula,-13.8483,136.4192,87.8,79,40,13.8,AU,1619581615
Arman',59.7,150.1667,31.28,76,14,3.31,RU,1619581616
Vao,-22.6667,167.4833,73.8,55,0,16.78,NC,1619581616
Bathsheba,13.2167,-59.5167,78.8,65,40,14.97,BB,1619581565
Yumen,40.2833,97.2,65.8,11,69,27.89,CN,1619581617
Dinuba,36.5433,-119.3871,71.01,39,1,5.48,US,1619581617
Pierre,44.3683,-100.351,52.0,93,90,5.21,US,1619581503
Kaitangata,-46.2817,169.8464,51.55,73,89,8.52,NZ,1619581618
Trelew,-43.249,-65.3051,65.17,39,94,9.33,AR,1619581619
Ankang,32.68,109.0172,70.45,50,67,2.35,CN,1619581619
Berlevåg,70.8578,29.0864,26.6,68,75,17.27,NO,1619581620
Nantucket,41.2835,-70.0995,48.2,71,1,12.95,US,1619581620
Londoko,49.0333,131.9833,46.76,95,100,3.24,RU,1619581621
Novaya Lyalya,59.055,60.599,44.24,72,100,8.52,RU,1619581622
Carndonagh,55.25,-7.2667,39.54,81,13,7.11,IE,1619581622
Zhigansk,66.7697,123.3711,23.79,76,10,4.94,RU,1619581622
Lubango,-14.9172,13.4925,59.7,74,53,1.68,AO,1619581623
Juegang,32.3174,121.1855,73.0,76,34,3.94,CN,1619581624
Te Anau,-45.4167,167.7167,47.14,88,100,1.86,NZ,1619581624
Nuuk,64.1835,-51.7216,32.0,93,20,10.36,GL,1619581624
Fallon,39.4735,-118.7774,50.0,37,20,6.91,US,1619581625
Ormara,25.2088,64.6357,82.4,67,18,2.82,PK,1619581625
Mossamedes,-15.1961,12.1522,75.45,70,61,8.9,AO,1619581626
Ancud,-41.8697,-73.8203,54.0,100,90,4.23,CL,1619581627
Ribeira Grande,38.5167,-28.7,60.06,80,51,10.51,PT,1619581627
Udala,43.0778,-2.5125,48.0,97,99,0.6,ES,1619581628
Nanortalik,60.1432,-45.2371,34.07,90,31,6.51,GL,1619581628
Simao,22.7886,100.9748,85.28,36,38,4.38,CN,1619581628
Aleksandrov Gay,50.147,48.5704,47.37,62,100,5.08,RU,1619581629
Berdigestyakh,62.0989,126.6992,27.55,69,98,10.4,RU,1619581629
Lázaro Cárdenas,17.9583,-102.2,76.86,80,0,2.86,MX,1619581630
Aksha,50.2814,113.2867,35.08,25,98,15.66,RU,1619581630
Yining,29.0361,114.5636,66.16,84,100,1.77,CN,1619581631
Fortuna,40.5982,-124.1573,51.01,100,1,12.66,US,1619581631
Riyadh,24.6877,46.7219,80.6,28,89,5.75,SA,1619581551
Vung Tau,10.346,107.0843,85.51,68,100,14.97,VN,1619581632
Pong,19.1493,100.2752,86.0,74,20,1.14,TH,1619581632
Cootamundra,-34.65,148.0333,68.52,39,91,6.13,AU,1619581633
Pevek,69.7008,170.3133,25.14,82,100,8.86,RU,1619581633
Husavik,66.0449,-17.3389,37.4,87,90,3.44,IS,1619581634
Palauig,15.435,119.9045,83.68,69,98,7.27,PH,1619581634
Grand Gaube,-20.0064,57.6608,73.99,91,100,8.99,MU,1619581635
Nicoya,10.1483,-85.452,79.25,68,95,4.43,CR,1619581635
Talara,-4.5772,-81.2719,71.19,77,96,14.07,PE,1619581636
Haines Junction,60.7522,-137.5108,37.4,28,59,6.91,CA,1619581636
Wattegama,6.7989,81.4808,86.0,84,20,5.75,LK,1619581636
Adrar,20.5022,-10.0711,77.65,25,53,9.53,MR,1619581642
Pastavy,55.1168,26.8326,35.56,96,99,6.33,BY,1619581642
Sambava,-14.2667,50.1667,75.67,85,39,8.39,MG,1619581643
Faya,18.3851,42.4509,59.0,77,75,6.91,SA,1619581643
Doha,25.2867,51.5333,89.01,65,0,3.44,QA,1619581551
Alice Springs,-23.7,133.8833,75.2,22,0,13.8,AU,1619581597
Wollongong,-34.4333,150.8833,72.0,69,84,1.01,AU,1619581644
Klaksvík,62.2266,-6.589,37.4,81,75,12.66,FO,1619581617
Nara,34.6851,135.8049,66.2,77,75,3.44,JP,1619581645
Shimsk,58.212,30.7127,34.56,98,100,4.12,RU,1619581645
Provideniya,64.3833,-173.3,33.8,80,0,8.46,RU,1619581646
Codrington,-38.2667,141.9667,61.83,59,100,5.37,AU,1619581623
Bayangol,50.6977,103.4656,42.84,43,59,8.03,RU,1619581646
Comodoro Rivadavia,-45.8667,-67.5,60.8,48,0,13.8,AR,1619581647
Yecla,38.6137,-1.1147,54.0,85,7,3.0,ES,1619581648
Alekseyevka,50.6309,38.6903,40.28,65,99,6.78,RU,1619581648
Longyearbyen,78.2186,15.6401,15.8,86,40,5.75,SJ,1619581649
Solano,38.2333,-121.9511,71.01,30,1,10.36,US,1619581649
Korla,41.7597,86.1469,68.43,22,27,9.84,CN,1619581650
Port-Gentil,-0.7193,8.7815,81.55,79,100,4.52,GA,1619581650
Tallahassee,30.4383,-84.2807,69.8,73,20,1.3,US,1619581651
Chokurdakh,70.6333,147.9167,30.11,96,100,7.49,RU,1619581651
Norman Wells,65.282,-126.8329,28.4,40,75,9.22,CA,1619581652
Port Hardy,50.6996,-127.4199,48.2,100,90,4.61,CA,1619581515
Moindou,-21.6924,165.677,77.0,57,75,14.97,NC,1619581652
Sola,-13.8833,167.55,87.8,58,20,4.61,VU,1619581653
Ambilobe,-13.2,49.05,73.47,87,20,3.02,MG,1619581653
Peleduy,59.6289,112.7406,30.45,68,94,6.64,RU,1619581654
Nikolayevsk-on-Amur,53.1406,140.73,46.17,68,100,10.33,RU,1619581654
Dingle,10.9995,122.6711,85.17,63,100,10.33,PH,1619581655
Itaituba,-4.2761,-55.9836,73.04,99,100,0.94,BR,1619581655
Faanui,-16.4833,-151.75,81.77,72,60,11.92,PF,1619581656
Hailar,49.2,119.7,32.61,80,100,16.22,CN,1619581656
Megion,61.0296,76.1136,42.8,75,0,6.71,RU,1619581657
Kewanee,41.2456,-89.9248,73.99,64,100,1.99,US,1619581657
Mayo,38.8876,-76.5119,72.0,68,1,4.61,US,1619581657
Yuncheng,35.0231,110.9928,69.62,21,17,14.29,CN,1619581658
Tefé,-3.3542,-64.7114,73.56,98,100,1.79,BR,1619581659
Balkanabat,39.5108,54.3671,62.26,73,38,6.98,TM,1619581659
Salinas,36.6777,-121.6555,57.2,62,1,9.22,US,1619581496
Nizhnyaya Salda,58.0776,60.7202,46.33,63,79,8.5,RU,1619581660
Alofi,-19.0595,-169.9187,84.2,79,75,12.66,NU,1619581660
Thompson,55.7435,-97.8558,19.4,53,75,8.05,CA,1619581516
Byron Bay,-28.65,153.6167,64.4,94,40,11.5,AU,1619581661
Mocoa,1.1493,-76.6466,70.25,99,100,0.29,CO,1619581661
Acaraú,-2.8856,-40.12,76.37,86,90,8.46,BR,1619581662
Saint-Philippe,-21.3585,55.7679,77.0,78,0,6.91,RE,1619581662
Hasaki,35.7333,140.8333,72.0,52,75,13.8,JP,1619581663
Ngunguru,-35.6167,174.5,64.0,67,54,3.0,NZ,1619581668
Cidreira,-30.1811,-50.2056,57.76,81,4,8.19,BR,1619581669
Emerald,-23.5333,148.1667,81.0,28,40,4.61,AU,1619581669
Taoudenni,22.6783,-3.9836,88.2,17,77,13.49,ML,1619581670
Spencer,43.1414,-95.1444,50.0,81,90,14.97,US,1619581670
Charlottesville,38.0293,-78.4767,71.6,53,1,9.22,US,1619581531
Ardabil,38.2498,48.2933,55.4,88,75,6.91,IR,1619581671
Tautira,-17.7333,-149.15,84.2,65,40,3.44,PF,1619581672
Mount Isa,-20.7333,139.5,84.2,21,0,5.75,AU,1619581672
La Asuncion,11.0333,-63.8628,78.8,89,98,14.97,VE,1619581673
Maïné Soroa,13.2114,12.0241,81.61,14,8,11.03,NE,1619581673
Bethel,41.3712,-73.414,54.0,50,1,2.82,US,1619581674
Aksarka,66.5606,67.7975,30.02,93,98,9.98,RU,1619581674
Thongwa,16.7619,96.5278,86.0,70,75,3.44,MM,1619581675
Kisanga,-7.4362,37.7034,71.53,96,69,2.17,TZ,1619581675
Cherskiy,68.75,161.3,30.58,80,98,13.56,RU,1619581676
Tateyama,34.9833,139.8667,69.8,68,75,13.8,JP,1619581676
Caravelas,-17.7125,-39.2481,73.06,82,52,5.08,BR,1619581677
Noci,40.7907,17.1317,59.0,100,90,8.05,IT,1619581677
Port Lincoln,-34.7333,135.8667,71.13,42,60,1.14,AU,1619581449
Nouadhibou,20.931,-17.0347,64.4,94,0,10.36,MR,1619581678
Palmer,42.1584,-72.3287,54.0,37,75,3.4,US,1619581485
Pingzhuang,42.0372,119.2889,60.33,12,1,18.14,CN,1619581679
Salinópolis,-0.6136,-47.3561,78.82,82,100,6.38,BR,1619581679
Englehart,47.8169,-79.8664,46.4,53,20,5.75,CA,1619581679
Joshīmath,30.5667,79.5667,70.84,35,0,4.07,IN,1619581680
Témiscaming,46.7212,-79.0971,46.4,76,100,2.21,CA,1619581393
The Valley,18.217,-63.0578,77.0,78,75,9.22,AI,1619581681
Øksfjord,70.2396,22.3479,28.99,93,90,3.44,NO,1619581682
Turtas,58.9417,69.1325,46.72,57,100,7.58,RU,1619581682
Bima,-8.4667,118.7167,88.88,52,21,0.78,ID,1619581683
North Bend,43.4065,-124.2243,53.6,76,1,12.66,US,1619581683
Lavrentiya,65.5833,-171.0,33.28,92,100,2.3,RU,1619581684
Riwaka,-41.0833,173.0,57.99,72,70,1.99,NZ,1619581684
Ţaga,46.95,24.05,43.0,93,90,4.61,RO,1619581684
Evensk,61.95,159.2333,30.63,66,1,4.21,RU,1619581685
Gelibolu,40.4103,26.6708,48.2,81,0,4.61,TR,1619581685
Marsá Maţrūḩ,31.3525,27.2453,59.0,44,0,4.61,EG,1619581686
Sitka,57.0531,-135.33,46.4,87,90,6.76,US,1619581686
Conde,-7.2597,-34.9075,75.2,100,20,5.75,BR,1619581687
Saint-Pierre,-21.3393,55.4781,75.99,78,0,6.91,RE,1619581687
Heinola,61.2056,26.0381,30.99,93,20,4.61,FI,1619581629
Northam,51.0333,-4.2167,46.0,89,83,1.99,GB,1619581688
Fort-Shevchenko,44.5086,50.263,57.74,61,95,12.57,KZ,1619581688
Kyrenia,35.3417,33.3167,55.4,88,90,3.44,CY,1619581689
Cabo San Lucas,22.8909,-109.9124,72.0,72,23,15.08,MX,1619581694
Santa Cruz de Tenerife,28.4682,-16.2546,61.0,94,20,8.05,ES,1619581695
Torbay,47.6666,-52.7314,41.0,87,90,6.55,CA,1619581695
Necochea,-38.5473,-58.7368,57.0,87,0,5.01,AR,1619581696
Urdoma,61.7533,48.5442,37.49,93,100,2.48,RU,1619581696
Cedar City,37.6775,-113.0619,42.8,61,90,12.66,US,1619581479
Payo,-3.7508,103.6372,90.63,49,32,2.57,ID,1619581697
Shar,49.5886,81.0453,66.94,31,100,18.07,KZ,1619581697
Oshikango,-17.4,15.8833,66.2,55,18,3.44,NA,1619581698
Hambantota,6.1241,81.1185,86.0,84,20,5.75,LK,1619581698
Broome,42.2506,-75.833,66.2,37,90,8.05,US,1619581699
Kruisfontein,-34.0033,24.7314,53.01,93,100,1.99,ZA,1619581699
Östersund,63.1792,14.6357,30.0,86,100,9.22,SE,1619581700
Coquimbo,-29.9533,-71.3436,53.6,94,0,2.3,CL,1619581700
Port Elizabeth,-33.918,25.5701,60.8,88,75,3.44,ZA,1619581701
Bacolod City,10.6667,122.95,85.15,66,82,14.38,PH,1619581701
Kaili,-3.4626,120.2147,77.36,77,41,3.98,ID,1619581702
Talnakh,69.4865,88.3972,30.47,79,100,11.88,RU,1619581702
General Pico,-35.6566,-63.7568,55.2,88,0,7.58,AR,1619581703
Muros,42.7762,-9.0603,52.0,81,26,3.0,ES,1619581703
Rancho Palos Verdes,33.7445,-118.387,60.01,58,20,9.22,US,1619581704
Asău,46.4333,26.4,41.0,87,75,2.3,RO,1619581704
Lagoa,39.05,-27.9833,59.4,77,100,9.98,PT,1619581648
Lakhdenpokh'ya,61.5198,30.1992,32.0,77,100,1.77,RU,1619581705
Barcelos,41.5388,-8.6151,57.2,88,0,5.75,PT,1619581705
Ilave,-16.0833,-69.6667,39.63,56,68,3.47,PE,1619581706
Leningradskiy,69.3833,178.4167,25.9,82,38,9.69,RU,1619581671
Yangi Marg`ilon,40.4272,71.7189,78.8,19,0,2.3,UZ,1619581706
Marialva,-23.485,-51.7917,62.6,55,0,2.98,BR,1619581707
Aklavik,68.2191,-135.0107,30.2,34,6,4.61,CA,1619581708
Colinas,-6.0258,-44.2492,73.15,89,95,0.81,BR,1619581708
Jiwani,25.05,61.7417,83.53,70,87,6.53,PK,1619581709
Rome,43.2128,-75.4557,55.4,50,90,9.22,US,1619581451
Harlingen,26.1906,-97.6961,81.0,83,90,19.57,US,1619581709
Pitimbu,-7.4706,-34.8086,75.2,100,20,5.75,BR,1619581710
Iqaluit,63.7506,-68.5145,15.8,92,20,3.53,CA,1619581710
Beşikdüzü,41.052,39.2284,53.6,87,0,6.91,TR,1619581711
Casper,42.8666,-106.3131,45.0,81,90,8.05,US,1619581711
San Quintín,30.4833,-115.95,55.4,71,7,13.22,MX,1619581711
Tilichiki,60.4667,166.1,30.16,82,100,7.81,RU,1619581712
Ushtobe,45.2514,77.9838,76.51,18,3,0.67,KZ,1619581712
Swan River,52.1058,-101.2676,33.8,47,71,10.36,CA,1619581713
Warrington,53.3925,-2.5802,46.4,81,90,13.8,GB,1619581713
Murud,18.3258,72.965,89.42,48,0,1.86,IN,1619581714
San Rafael,-34.6177,-68.3301,62.2,58,0,8.5,AR,1619581715
Shache,38.4167,77.2406,72.46,14,0,9.01,CN,1619581715
Port Hedland,-20.3167,118.5667,95.0,13,0,10.36,AU,1619581715
Kulevcha,46.0303,29.9361,41.2,83,100,7.85,UA,1619581716
Salalah,17.0151,54.0924,82.4,74,40,1.14,OM,1619581575
Malbork,54.0359,19.0266,34.0,84,16,4.56,PL,1619581722
Puga,21.5833,-104.8167,66.33,71,100,1.48,MX,1619581722
Yazoo City,32.8551,-90.4056,75.2,100,75,10.36,US,1619581723
Whitehorse,60.7161,-135.0538,32.0,37,40,6.91,CA,1619581723
Villa de Reyes,21.8,-100.9333,77.0,22,90,6.91,MX,1619581724
Souris,49.6172,-100.2612,44.6,53,20,18.41,CA,1619581724
Olinda,-8.0089,-34.8553,75.2,88,75,4.61,BR,1619581724
Basoko,1.2391,23.616,70.57,95,100,2.8,CD,1619581725
Carbonia,39.1672,8.5222,55.0,82,20,1.14,IT,1619581725
Nuevo Progreso,23.1667,-97.95,79.0,71,100,1.01,MX,1619581726
Sept-Îles,50.2001,-66.3821,43.0,75,75,5.75,CA,1619581726
Lüderitz,-26.6481,15.1594,57.92,82,8,8.63,NA,1619581727
Cockburn Town,21.4612,-71.1419,78.22,73,60,20.36,TC,1619581727
Malibu,34.005,-118.8101,55.99,82,0,4.0,US,1619581728
Akdepe,42.0551,59.3788,68.0,45,0,9.22,TM,1619581729
Furth im Wald,49.3097,12.84,34.0,81,7,1.99,DE,1619581729
Vetluzhskiy,58.3902,45.4654,40.08,84,100,4.03,RU,1619581730
Khandyga,62.6667,135.6,33.93,100,100,2.75,RU,1619581602
Katsuura,35.1333,140.3,69.8,56,75,21.85,JP,1619581680
‘Āhuimanu,21.4447,-157.8378,80.6,73,75,5.75,US,1619581731
Yārāda,17.65,83.2667,89.6,66,20,10.36,IN,1619581731
Verkhoyansk,67.5447,133.385,23.68,69,98,3.13,RU,1619581732
Kamaishi,39.2667,141.8833,59.0,55,75,3.44,JP,1619581732
Lima,-12.0432,-77.0282,63.0,94,75,11.5,PE,1619581724
Karpathos,35.507,27.2132,60.8,82,41,6.91,GR,1619581733
Indian Head,38.6001,-77.1622,71.01,64,1,3.44,US,1619581655
Sistranda,63.7256,8.834,32.0,93,40,4.61,NO,1619581734
Juneau,58.3019,-134.4197,42.8,75,90,5.91,US,1619581734
Zhalantun,48.0,122.7167,48.72,28,100,20.04,CN,1619581735
Kirovskiy,45.0917,133.5136,51.94,74,100,12.19,RU,1619581736
Kieta,-6.2167,155.6333,84.7,68,70,2.64,PG,1619581736
Bagru,26.8088,75.5423,93.2,8,0,3.44,IN,1619581737
Sidi Ali,36.0998,0.4206,58.71,76,36,8.61,DZ,1619581737
Combita,5.6333,-73.3167,52.32,96,100,1.79,CO,1619581738
Şile,41.1754,29.6133,48.99,93,0,8.05,TR,1619581738
College,64.8569,-147.8028,48.2,17,75,3.44,US,1619581738
Pelym,61.0108,61.9978,42.91,61,78,5.73,RU,1619581739
Morgaushi,55.9643,46.7743,33.8,86,75,13.42,RU,1619581739
Srednekolymsk,67.45,153.6833,31.6,94,40,5.17,RU,1619581604
Waycross,31.2136,-82.354,68.0,73,1,4.61,US,1619581573
Hedaru,-4.5,37.9,68.97,92,96,3.53,TZ,1619581741
Phetchabun,16.25,101.0833,89.01,78,20,2.3,TH,1619581673
Najrān,17.4924,44.1277,71.6,68,40,3.44,SA,1619581741
Massakory,12.996,15.7293,82.67,9,22,14.16,TD,1619581742
Luanda,-8.8368,13.2343,75.2,83,75,2.3,AO,1619581742
Walvis Bay,-22.9575,14.5053,60.01,100,1,8.05,NA,1619581748
Esperance,-33.8667,121.9,75.2,46,53,5.75,AU,1619581707
Panabá,21.2833,-88.2667,77.36,75,8,12.08,MX,1619581749
Ostrovnoy,68.0531,39.5131,24.21,84,100,7.18,RU,1619581749
Tsimmerbude,54.675,20.1347,30.99,93,75,4.47,RU,1619581655
Khovd,48.0056,91.6419,58.01,21,99,3.83,MN,1619581750
Umm Kaddadah,13.6017,26.6876,75.2,17,69,13.31,SD,1619581750
Stephenville,32.2207,-98.2023,73.4,78,90,12.66,US,1619581637
Assiut,27.181,31.1837,60.8,67,0,9.22,EG,1619581564
Antalaha,-14.9003,50.2788,74.68,86,32,5.01,MG,1619581752
Vardø,70.3705,31.1107,26.6,63,75,9.22,NO,1619581752
Opuwo,-18.0607,13.84,61.74,55,12,1.45,NA,1619581752
Meulaboh,4.1363,96.1285,83.64,77,97,5.93,ID,1619581753
Härnösand,62.6323,17.9379,34.0,69,40,5.75,SE,1619581753
Shimoda,34.6667,138.95,66.2,68,75,13.8,JP,1619581754
Boyuibe,-20.4167,-63.2833,61.39,68,84,2.73,BO,1619581755
Lorengau,-2.0226,147.2712,85.95,66,14,7.99,PG,1619581755
Mackenzie,55.2999,-123.1698,39.2,93,90,11.5,CA,1619581516
Jalu,29.0331,21.5482,69.91,24,0,9.71,LY,1619581756
Tuy Hoa,13.0833,109.3,86.45,61,100,8.75,VN,1619581756
Marzuq,14.4,46.4667,71.56,70,72,3.13,YE,1619581757
Tessalit,20.1986,1.0114,85.1,16,3,3.94,ML,1619581757
Santa Isabel,-23.3156,-46.2214,62.6,94,75,3.44,BR,1619581758
Concepción del Oro,24.6333,-101.4167,71.35,14,100,13.49,MX,1619581758
Alugan,12.2188,125.4808,82.04,70,82,8.43,PH,1619581759
Dandong,40.1292,124.3947,64.67,23,0,16.8,CN,1619581759
São João da Barra,-21.6403,-41.0511,70.83,94,73,9.48,BR,1619581760
Vanimo,-2.6741,141.3028,85.87,64,11,6.2,PG,1619581760
Khani,41.9563,42.9566,48.2,100,90,4.61,GE,1619581760
Emba,48.8264,58.1442,50.34,64,32,6.73,KZ,1619581761
Władysławowo,54.7909,18.4009,34.0,93,11,6.06,PL,1619581761
Aasiaat,68.7098,-52.8699,28.11,93,98,3.51,GL,1619581762
Talavera de la Reina,39.9635,-4.8308,50.25,95,31,4.61,ES,1619581762
Mareeba,-17.0,145.4333,82.4,54,40,16.11,AU,1619581763
Los Córdobas,8.894,-76.3546,79.2,83,100,15.23,CO,1619581763
Poum,-20.2333,164.0167,76.75,59,3,21.52,NC,1619581764
São Félix do Xingu,-6.6447,-51.995,72.09,99,100,2.01,BR,1619581764
Rognan,67.0953,15.3878,32.0,92,89,2.1,NO,1619581765
Karratha,-20.7377,116.8463,92.32,17,0,13.51,AU,1619581765
Letlhakane,-21.4167,25.5833,62.4,32,65,7.2,BW,1619581766
Umluj,25.0213,37.2685,76.84,58,0,4.36,SA,1619581719
Xiaoweizhai,26.1903,107.5125,58.82,88,100,6.55,CN,1619581766
Sioux Lookout,50.1001,-91.917,37.4,81,1,2.17,CA,1619581767
Hammerfest,70.6634,23.6821,26.6,86,90,10.36,NO,1619581767
Malinyi,-8.9333,36.1333,70.48,98,99,1.19,TZ,1619581768
Lucea,18.451,-78.1736,78.8,61,20,6.91,JM,1619581768
Sal Rei,16.1833,-22.9167,69.8,78,20,9.22,CV,1619581774
Haverfordwest,51.8017,-4.9691,46.0,93,98,5.01,GB,1619581774
Omboué,-1.5746,9.2618,78.4,92,100,4.27,GA,1619581774
La Macarena,2.1837,-73.7849,70.34,98,100,3.24,CO,1619581775
Malatya Province,38.5,38.0,50.0,66,0,2.3,TR,1619581775
Dudinka,69.4058,86.1778,33.8,90,100,16.11,RU,1619581776
Erzin,36.9559,36.2,63.0,90,63,1.54,TR,1619581776
Kedrovyy,56.1667,91.8167,51.8,54,0,11.18,RU,1619581777
Broken Hill,-31.95,141.4333,71.6,28,35,10.36,AU,1619581777
Tambura,5.6,27.4667,69.42,77,88,3.98,SS,1619581778
Aswān,24.0934,32.907,73.29,25,0,9.28,EG,1619581778
Vestmannaeyjar,63.4427,-20.2734,43.11,78,4,18.52,IS,1619581779
Catuday,16.2923,119.8062,82.72,64,37,6.24,PH,1619581779
Qom,34.6401,50.8764,74.57,32,97,1.3,IR,1619581700
Novopokrovka,49.8425,36.5477,37.4,87,54,6.71,UA,1619581780
Lompoc,34.6391,-120.4579,53.6,76,4,12.66,US,1619581603
Roscommon,53.6333,-8.1833,43.0,39,86,30.0,IE,1619581780
Chkalovskoye,44.8392,133.0436,52.74,68,100,10.02,RU,1619581781
Emet,39.343,29.2585,53.02,57,52,5.88,TR,1619581781
Kipini,-2.5257,40.5262,80.85,79,66,8.43,KE,1619581782
Brigantine,39.4101,-74.3646,60.8,72,1,5.75,US,1619581639
Marquette,46.5333,-87.6335,37.0,93,100,6.29,US,1619581783
Noumea,-22.2763,166.4572,77.0,57,75,14.97,NC,1619581783
Birjand,32.8663,59.2211,69.8,24,75,6.91,IR,1619581784
Mahon,39.8885,4.2658,57.2,94,75,3.44,ES,1619581784
Ukmerge,55.25,24.75,37.4,75,90,6.91,LT,1619581784
Kulhudhuffushi,6.6221,73.07,83.95,71,58,5.23,MV,1619581785
Superior,46.7208,-92.1041,37.4,93,90,6.91,US,1619581785
Casablanca,33.5928,-7.6192,57.2,100,40,4.61,MA,1619581505
Charters Towers,-20.1,146.2667,76.46,49,63,10.36,AU,1619581786
Nadym,65.5333,72.5167,33.37,99,100,7.36,RU,1619581786
Wołów,51.3366,16.6443,36.0,69,0,5.75,PL,1619581787
Stokmarknes,68.5646,14.9108,30.0,81,81,1.01,NO,1619581787
Aţel,46.15,24.4667,45.0,93,90,8.05,RO,1619581788
Ponta do Sol,32.6667,-17.1,59.0,82,100,1.99,PT,1619581591
Rawson,-43.3002,-65.1023,65.08,43,86,11.12,AR,1619581732
Bud,39.447,-86.1758,72.0,47,100,13.24,US,1619581789
Sørland,67.667,12.6934,37.2,62,45,12.91,NO,1619581789
Riesi,37.2819,14.0823,57.0,73,98,5.44,IT,1619581790
Kushtagi,15.7667,76.2,89.78,32,1,3.78,IN,1619581790
Mandan,46.8267,-100.8896,54.0,81,1,10.36,US,1619581791
Tigil',57.8,158.6667,33.37,96,99,10.13,RU,1619581791
Mokhotlong,-29.2894,29.0675,46.67,65,31,4.7,LS,1619581792
Peringat,6.0333,102.2833,84.2,79,20,4.61,MY,1619581792
Aitape,-3.1374,142.3475,86.14,64,16,6.29,PG,1619581792
Paamiut,61.994,-49.6678,36.3,74,36,3.94,GL,1619581706
Hofn,64.2539,-15.2082,39.83,62,4,16.35,IS,1619581785
Bairiki Village,1.3292,172.9752,84.2,74,40,5.75,KI,1619581793
Tazovsky,67.4667,78.7,31.93,99,100,7.81,RU,1619581794
Chippewa Falls,44.9369,-91.3929,46.99,81,90,8.05,US,1619580902
Kandi,11.1342,2.9386,81.12,61,70,6.46,BJ,1619581800
Makakilo City,21.3469,-158.0858,80.6,61,1,17.27,US,1619581668
Sabha,27.0377,14.4283,76.21,14,7,8.97,LY,1619581801
Polunochnoye,60.8697,60.4153,41.68,64,100,3.15,RU,1619581801
Esna,25.2934,32.554,64.4,29,0,2.3,EG,1619581802
Inta,66.0317,60.1659,29.08,85,99,6.46,RU,1619581802
Auki,-8.7676,160.7034,80.31,84,100,5.32,SB,1619581803
Morón,-34.6534,-58.6198,62.01,90,0,4.12,AR,1619581803
Mtsensk,53.2766,36.5733,33.76,81,23,8.59,RU,1619581803
Lucapa,-8.4192,20.7447,64.74,94,96,2.68,AO,1619581804
Ust-Maya,60.4167,134.5333,32.92,99,100,3.96,RU,1619581804
Kenai,60.5544,-151.2583,48.2,61,1,10.36,US,1619581805
Portland,45.5234,-122.6762,60.01,59,83,3.42,US,1619581805
Belaya Gora,68.5333,146.4167,30.33,97,100,2.75,RU,1619581806
Rio Grande,-32.035,-52.0986,46.0,96,18,10.11,BR,1619581806
Linjiang,41.8069,126.9078,58.23,26,47,18.9,CN,1619581807
Kalabo,-14.97,22.6814,65.07,80,89,5.39,ZM,1619581807
Laguna,38.421,-121.4238,75.2,21,1,5.75,US,1619581808
Coolum Beach,-26.5333,153.1,72.0,77,41,1.01,AU,1619581808
Dongzhen,22.3797,110.9389,75.87,85,97,4.34,CN,1619581809
Marsh Harbour,26.5412,-77.0636,74.66,60,93,18.3,BS,1619581810
Mwene-Ditu,-7.0,23.45,64.53,96,16,3.89,CD,1619581810
Gorontalo,0.5412,123.0595,89.82,57,9,6.76,ID,1619581810
Mehamn,71.0357,27.8492,26.6,68,75,17.27,NO,1619581811
Bogandé,12.9714,-0.1436,84.49,51,19,11.97,BF,1619581811
Southbridge,42.0751,-72.0334,52.0,49,68,3.4,US,1619581812
Akonolinga,3.7667,12.25,68.13,99,100,2.84,CM,1619581812
Pandharpur,17.6667,75.3333,93.34,25,6,6.87,IN,1619581813
Kloulklubed,7.0419,134.2556,86.0,70,75,6.91,PW,1619581812
Brae,60.3964,-1.353,39.2,81,100,10.36,GB,1619581813
Eyl,7.9803,49.8164,83.97,71,45,5.57,SO,1619581613
Manono,-7.3,27.4167,67.73,95,71,2.3,CD,1619581814
Pimentel,-6.8367,-79.9342,63.0,86,98,4.0,PE,1619581815
Kashgar,39.4547,75.9797,69.8,12,0,6.71,CN,1619581815
Dickinson,29.4608,-95.0513,77.0,88,90,11.5,US,1619581816
Whyalla,-33.0333,137.5833,68.0,64,70,9.22,AU,1619581816
Shadrinsk,56.0852,63.6335,46.94,73,94,10.6,RU,1619581816
Martinsicuro,42.8811,13.9145,54.0,93,99,2.55,IT,1619581817
Kapuskasing,49.4169,-82.4331,42.8,70,100,3.44,CA,1619581817
Dustlik,40.5247,68.0358,80.58,26,0,3.78,UZ,1619581818
Denia,38.8408,0.1057,61.0,92,17,1.99,ES,1619581818
Amapá,1.0,-52.0,70.95,99,100,2.21,BR,1619581819
Phalodi,27.1333,72.3667,95.23,19,0,12.28,IN,1619581820
Horsham,51.064,-0.3272,43.0,75,0,5.75,GB,1619581820
Hervey Bay,-25.2986,152.8535,75.0,66,6,5.99,AU,1619581820
Xinqing,48.2333,129.5,57.79,18,100,11.34,CN,1619581821
Susa,32.1942,48.2436,84.76,28,100,7.11,IR,1619581821
Kavaratti,10.5669,72.642,84.09,73,7,4.94,IN,1619581822
Vostok,46.4856,135.8833,43.72,87,100,4.59,RU,1619581827
Khetia,21.6667,74.5833,92.21,27,56,4.94,IN,1619581828
Bilibino,68.0546,166.4372,25.21,77,53,2.44,RU,1619581795
Yurimaguas,-5.9,-76.0833,71.62,99,100,1.19,PE,1619581828
Catia La Mar,10.6038,-67.0303,78.8,83,75,7.31,VE,1619581829
Sakakah,29.9697,40.2064,62.6,27,0,3.44,SA,1619581682
Semaria,24.3073,79.9718,87.8,23,0,7.54,IN,1619581830
Kahului,20.8947,-156.47,80.6,61,40,11.5,US,1619581830
Zirándaro de los Chávez,18.45,-100.9833,86.99,34,0,4.45,MX,1619581831
San Cristobal,7.7669,-72.225,66.45,96,98,1.83,VE,1619581816
Inuvik,68.3499,-133.7218,30.2,34,5,4.61,CA,1619581832
Tiarei,-17.5333,-149.3333,84.2,65,40,3.44,PF,1619581832
