City,Lat,Lng,Max Temp,Humidity,Cloudiness,Wind Speed,Country,Date
Mataura,-46.1927,168.8643,44.01,82,72,10.0,NZ,1619379495
Roding,49.1964,12.5186,48.2,40,1,9.64,DE,1619379495
Jamestown,42.097,-79.2353,46.0,81,90,11.5,US,1619379496
Makkah al Mukarramah,21.4267,39.8261,87.22,33,73,4.16,SA,1619379496
Maceió,-9.6658,-35.7353,84.2,65,20,9.22,BR,1619379497
Rikitea,-23.1203,-134.9692,77.86,74,100,8.1,PF,1619379497
Alofi,-19.0595,-169.9187,77.0,94,67,1.14,NU,1619379498
Randazzo,37.8774,14.9501,57.99,85,18,3.15,IT,1619379498
Rio Grande,-32.035,-52.0986,73.4,38,75,12.66,BR,1619379499
Walvis Bay,-22.9575,14.5053,63.0,77,20,3.44,NA,1619379499
Khandyga,62.6667,135.6,15.17,91,100,4.21,RU,1619379500
Provideniya,64.3833,-173.3,33.8,75,0,2.39,RU,1619379501
Dikson,73.5069,80.5464,16.52,91,100,11.3,RU,1619379359
Torbay,47.6666,-52.7314,53.6,35,20,23.02,CA,1619379502
Iqaluit,63.7506,-68.5145,33.8,80,90,3.44,CA,1619379502
Busselton,-33.65,115.3333,52.0,96,100,4.36,AU,1619379350
Bredasdorp,-34.5322,20.0403,55.4,88,100,2.3,ZA,1619379252
Norman Wells,65.282,-126.8329,35.6,44,20,19.57,CA,1619379503
Liku,-0.7275,119.8922,75.54,89,100,3.96,ID,1619379504
Nishihara,26.1842,127.7558,66.2,88,20,4.61,JP,1619379504
Coyhaique,-45.5752,-72.0662,59.0,51,20,6.91,CL,1619379505
Iwanai,42.9744,140.5089,31.06,76,24,3.53,JP,1619379505
Upata,8.0086,-62.3989,90.0,61,99,7.0,VE,1619379505
Burns Lake,54.2331,-125.7533,46.4,25,6,5.75,CA,1619379506
Shimoda,34.6667,138.95,50.0,42,58,5.01,JP,1619379506
Ushuaia,-54.8,-68.3,55.4,54,40,10.36,AR,1619379507
Inhambane,-23.865,35.3833,77.0,78,40,2.53,MZ,1619379507
Esperance,-33.8667,121.9,60.8,63,0,18.41,AU,1619379503
Erzin,36.9559,36.2,69.01,74,99,0.72,TR,1619379508
Bairnsdale,-37.8333,147.6167,46.99,92,35,6.02,AU,1619379508
Alta Floresta,-9.8756,-56.0861,77.0,100,40,3.44,BR,1619379509
Lovington,32.944,-103.3485,87.01,9,1,10.0,US,1619379510
Ribeira Grande,38.5167,-28.7,66.2,68,20,4.61,PT,1619379510
New Norfolk,-42.7826,147.0587,55.99,80,96,3.0,AU,1619379511
Saint George,37.1041,-113.5841,81.0,12,1,29.93,US,1619379511
Hilo,19.7297,-155.09,75.2,69,90,4.61,US,1619379512
Saint Paul Harbor,57.79,-152.4072,39.2,93,90,12.66,US,1619379513
Hasaki,35.7333,140.8333,46.4,42,20,13.8,JP,1619379513
Bluff,-46.6,168.3333,44.01,82,71,10.0,NZ,1619379514
Cape Town,-33.9258,18.4232,63.0,94,20,10.36,ZA,1619379514
Campo Verde,-20.4167,-54.0667,77.0,65,75,9.22,BR,1619379515
Calderitas,18.55,-88.25,91.0,66,40,12.66,MX,1619379515
Albany,42.6001,-73.9662,57.2,71,90,6.91,US,1619379360
Upernavik,72.7868,-56.1549,36.27,83,4,4.05,GL,1619379407
Arraial do Cabo,-22.9661,-42.0278,80.6,69,0,8.05,BR,1619379381
Carnarvon,-24.8667,113.6333,62.6,77,0,5.75,AU,1619379521
Kidal,18.4411,1.4078,94.44,5,0,6.6,ML,1619379522
Anadyr,64.75,177.4833,23.0,100,90,2.24,RU,1619379523
Clyde River,70.4692,-68.5914,19.4,100,75,29.93,CA,1619379473
Tura,25.5198,90.2201,76.93,29,2,3.89,IN,1619379523
Quang Ngai,15.1167,108.8,75.56,91,97,3.24,VN,1619379524
Lakselv,70.0513,24.9718,33.8,64,75,5.26,NO,1619379524
Hermanus,-34.4187,19.2345,60.01,88,100,1.21,ZA,1619379356
Coahuayana Viejo,18.7333,-103.6833,87.8,33,75,8.08,MX,1619379525
Puerto Baquerizo Moreno,-0.9,-89.6,84.2,65,20,13.8,EC,1619379526
Los Llanos de Aridane,28.6585,-17.9182,69.8,64,40,5.75,ES,1619379229
Lagoa,39.05,-27.9833,59.31,81,98,13.94,PT,1619379526
Divnogorsk,55.9594,92.3619,39.2,45,0,11.18,RU,1619379527
Ancud,-41.8697,-73.8203,61.0,82,75,4.61,CL,1619379527
Tuktoyaktuk,69.4541,-133.0374,12.2,79,90,12.66,CA,1619379351
Vaini,-21.2,-175.2,73.4,100,75,5.75,TO,1619379528
Pisco,-13.7,-76.2167,72.0,83,40,10.36,PE,1619379528
Tessalit,20.1986,1.0114,92.59,6,0,7.34,ML,1619379529
Vardø,70.3705,31.1107,33.8,69,40,14.97,NO,1619379530
Stornoway,58.2093,-6.3865,52.0,87,100,4.61,GB,1619379530
Punta Arenas,-53.15,-70.9167,57.2,62,75,18.41,CL,1619379531
Maragogi,-9.0122,-35.2225,79.14,79,6,7.25,BR,1619379531
Qaanaaq,77.484,-69.3632,31.48,74,27,4.07,GL,1619379532
Saskylakh,71.9167,114.0833,16.18,95,100,14.07,RU,1619379390
Hobart,-42.8794,147.3294,57.2,58,90,14.97,AU,1619379532
Port Alfred,-33.5906,26.891,70.36,65,100,13.11,ZA,1619379533
Puerto Ayora,-0.7393,-90.3518,82.4,65,20,19.57,EC,1619379533
Bubaque,11.2833,-15.8333,78.37,69,44,20.87,GW,1619379534
Khatanga,71.9667,102.5,4.59,88,78,14.72,RU,1619379535
Newport,51.5877,-2.9984,52.0,57,19,16.11,GB,1619379535
Sambava,-14.2667,50.1667,74.14,88,95,8.03,MG,1619379536
Port-Cartier,50.0334,-66.8654,48.0,53,20,9.22,CA,1619379365
Lamar,33.6668,-95.5836,79.0,56,1,9.22,US,1619379536
Daru,-9.0763,143.2092,74.88,95,100,8.59,PG,1619379537
Porto-Novo,6.4965,2.6036,84.2,79,40,12.66,BJ,1619379537
Ginda,30.6945,78.4932,53.67,36,0,8.81,IN,1619379538
Saint Anthony,45.0205,-93.218,45.0,36,90,12.66,US,1619379368
Campos Belos,-13.0367,-46.7717,81.14,66,85,2.3,BR,1619379539
Port-Gentil,-0.7193,8.7815,82.4,78,20,4.61,GA,1619379539
Faanui,-16.4833,-151.75,80.94,64,4,2.91,PF,1619379539
Avarua,-21.2078,-159.775,80.6,83,40,11.5,CK,1619379527
Tasiilaq,65.6145,-37.6368,39.2,70,90,20.71,GL,1619379406
Kapaa,22.0752,-159.319,78.8,65,40,14.97,US,1619379540
Santa Cruz del Sur,20.7147,-77.9956,85.37,61,17,15.99,CU,1619379541
Cherskiy,68.75,161.3,7.2,93,96,4.54,RU,1619379539
Tommot,58.9564,126.2925,32.88,96,100,3.94,RU,1619379547
Tuzha,57.6062,47.936,34.45,96,100,19.64,RU,1619379547
Richards Bay,-28.783,32.0377,66.4,88,15,3.31,ZA,1619379547
Portree,57.4129,-6.1942,48.99,65,96,4.0,GB,1619379548
Chengde,40.9725,117.9361,48.97,61,65,2.8,CN,1619379548
Jumla,29.2747,82.1838,46.35,47,0,4.14,NP,1619379549
Kiryat Gat,31.61,34.7642,73.0,41,0,7.23,IL,1619379550
Fenyi,27.8112,114.6681,61.54,97,100,1.41,CN,1619379550
Lengshuitan,26.4111,111.5956,59.54,93,100,3.18,CN,1619379551
Atuona,-9.8,-139.0333,79.92,72,50,15.3,PF,1619379551
Caravelas,-17.7125,-39.2481,78.53,76,10,8.14,BR,1619379417
Chui,-33.6971,-53.4616,62.31,83,98,12.64,UY,1619379552
Pangkalanbuun,-2.6833,111.6167,74.3,91,89,2.1,ID,1619379553
Vestmannaeyjar,63.4427,-20.2734,44.6,87,40,14.97,IS,1619379553
Kabo,7.6994,18.629,74.17,86,100,7.74,CF,1619379554
Praia,14.9215,-23.5087,73.4,60,20,20.71,CV,1619379555
Lorengau,-2.0226,147.2712,79.23,83,53,6.35,PG,1619379555
Bonthe,7.5264,-12.505,81.84,76,60,6.46,SL,1619379555
Yangi Marg`ilon,40.4272,71.7189,62.6,42,0,6.91,UZ,1619379556
Kilembe,0.2,30.0,59.85,90,100,3.71,UG,1619379556
Berëzovka,53.7214,25.4993,30.78,81,81,6.35,BY,1619379557
Terra Santa,-2.1042,-56.4869,85.66,72,70,2.89,BR,1619379557
Vung Tau,10.346,107.0843,82.81,78,100,9.1,VN,1619379558
Aykhal,66.0,111.5,5.92,94,100,25.41,RU,1619379558
Seoul,37.5683,126.9778,55.4,62,0,6.91,KR,1619379559
Butaritari,3.0707,172.7902,82.36,76,19,12.17,KI,1619379372
Flin Flon,54.7682,-101.865,42.8,33,90,12.66,CA,1619379560
Fortuna,40.5982,-124.1573,55.99,81,90,9.22,US,1619379560
Arrondissement de Vesoul,47.5833,5.8333,60.8,36,0,7.81,FR,1619379560
Caucayá,-0.1934,-74.7819,84.09,69,72,3.11,CO,1619379561
Imuris,30.7833,-110.8667,85.03,8,97,18.97,MX,1619379561
Ponta do Sol,32.6667,-17.1,60.01,86,51,7.0,PT,1619379562
Ahipara,-35.1667,173.1667,59.14,80,65,7.02,NZ,1619379562
Carutapera,-1.195,-46.02,80.8,83,38,6.24,BR,1619379563
Riyadh,24.6877,46.7219,84.2,17,0,4.61,SA,1619379563
Richmond,37.5538,-77.4603,66.99,55,75,8.05,US,1619379423
Pitimbu,-7.4706,-34.8086,84.2,79,20,12.66,BR,1619379564
Kysyl-Syr,63.8986,122.7617,32.92,99,100,3.87,RU,1619379565
Hofn,64.2539,-15.2082,42.91,88,100,12.5,IS,1619379565
Mar del Plata,-38.0023,-57.5575,64.4,68,40,13.8,AR,1619379367
Yellowknife,62.456,-114.3525,6.8,61,90,9.22,CA,1619379277
Havelock,34.8791,-76.9013,66.0,67,69,5.01,US,1619379566
Samus',56.7475,84.6992,34.0,76,100,3.04,RU,1619379566
George Town,5.4112,100.3354,81.0,89,20,3.44,MY,1619379454
Shirokiy,49.758,129.523,36.99,46,99,5.77,RU,1619379572
Morondava,-20.2833,44.2833,76.82,82,100,8.68,MG,1619379573
Kahului,20.8947,-156.47,80.6,61,20,16.11,US,1619379573
Itarema,-2.9248,-39.9167,81.03,74,16,11.41,BR,1619379393
Craig,40.5153,-107.5464,69.8,14,20,20.71,US,1619379334
Kingsville,27.5159,-97.8561,93.2,40,20,10.36,US,1619379574
Tiksi,71.6872,128.8694,22.96,96,100,1.72,RU,1619379575
Saint-Augustin,51.226,-58.6502,48.0,41,92,10.49,CA,1619379540
Narsaq,60.9167,-46.05,51.8,28,75,24.16,GL,1619379575
Lavrentiya,65.5833,-171.0,28.38,83,97,1.48,RU,1619379563
Morón,-34.6534,-58.6198,66.2,72,75,6.91,AR,1619379576
Fairbanks,64.8378,-147.7164,53.01,37,1,0.69,US,1619379513
Katsuura,35.1333,140.3,53.6,50,75,17.27,JP,1619379435
Talnakh,69.4865,88.3972,-2.22,95,82,2.35,RU,1619379577
San Policarpo,12.1791,125.5072,77.86,82,100,8.97,PH,1619379578
Ambon City,-3.6954,128.1814,81.37,68,61,6.44,ID,1619379578
Young,-32.6833,-57.6333,66.99,49,0,5.01,UY,1619379578
Mazabuka,-15.856,27.748,67.73,64,98,3.67,ZM,1619379579
Salinópolis,-0.6136,-47.3561,81.81,78,57,8.79,BR,1619379579
Morro Bay,35.3658,-120.8499,57.99,86,100,5.01,US,1619379305
Touros,-5.1989,-35.4608,84.2,74,40,13.8,BR,1619379546
Barrow,71.2906,-156.7887,14.0,92,1,20.71,US,1619379580
Jiuquan,39.7432,98.5174,41.94,15,100,12.37,CN,1619379581
Caniço,32.6333,-16.85,66.2,63,20,3.44,PT,1619379581
Planeta Rica,8.4147,-75.5883,88.18,61,95,7.52,CO,1619379582
East London,-33.0153,27.9116,68.0,83,0,8.05,ZA,1619379582
Esim,4.8699,-2.2405,80.64,81,100,5.64,GH,1619379583
Coquimbo,-29.9533,-71.3436,62.6,72,20,11.5,CL,1619379583
Chokurdakh,70.6333,147.9167,19.27,94,100,14.25,RU,1619379433
Bom Jesus,-9.0744,-44.3586,80.1,71,100,3.18,BR,1619379584
Kampene,-3.6,26.6667,68.31,97,93,1.61,CD,1619379548
Nome,64.5011,-165.4064,39.99,70,40,4.94,US,1619379572
Vila Franca do Campo,37.7167,-25.4333,60.8,72,40,13.8,PT,1619379585
Saint-Philippe,-21.3585,55.7679,78.8,69,75,21.85,RE,1619379585
Marabá,-5.3686,-49.1178,86.0,86,75,5.75,BR,1619379586
Thinadhoo,0.5333,72.9333,82.33,66,39,4.41,MV,1619379586
Dingli,35.8614,14.3822,62.01,77,0,3.44,MT,1619379587
Tabory,58.5198,64.5495,44.58,71,99,10.18,RU,1619379587
Banyo,6.75,11.8167,71.15,70,51,1.81,CM,1619379587
Yulara,-25.2406,130.9889,57.2,47,0,10.36,AU,1619379588
Janakkala,60.9,24.6,35.01,97,100,9.89,FI,1619379588
Hithadhoo,-0.6,73.0833,82.56,68,99,4.52,MV,1619379589
Blagoyevo,63.3667,47.9167,40.71,95,100,5.95,RU,1619379589
Muros,42.7762,-9.0603,62.01,82,86,1.99,ES,1619379590
Ponta Delgada,37.7333,-25.6667,60.8,72,40,13.8,PT,1619379538
Owando,-0.4819,15.8999,78.53,68,79,1.59,CG,1619379591
Riverton,40.5219,-111.9391,60.01,58,40,10.36,US,1619379591
Takoradze,4.8845,-1.7554,81.34,82,79,6.93,GH,1619379591
Bauta,22.9828,-82.5464,89.6,48,40,10.36,CU,1619379592
Kieta,-6.2167,155.6333,78.4,78,73,1.66,PG,1619379592
Isangel,-19.55,169.2667,76.28,87,100,11.41,VU,1619379598
Bariloche,-41.1456,-71.3082,66.99,36,0,6.91,AR,1619379583
Sitka,57.0531,-135.33,53.6,54,1,5.75,US,1619379599
Ufimskiy,56.7084,58.0517,36.72,77,45,9.51,RU,1619379599
Seddon,-37.8068,144.8916,55.0,87,90,1.14,AU,1619379600
Bolshaya Glushitsa,50.2406,43.5908,41.83,55,56,4.74,RU,1619379600
Vila Velha,-20.3297,-40.2925,82.99,74,20,12.66,BR,1619379601
Oranjestad,12.524,-70.027,87.8,55,20,25.32,AW,1619379432
Naryan-Mar,67.6713,53.087,39.06,89,100,7.2,RU,1619379602
Kutum,14.2,24.6667,80.82,15,18,7.87,SD,1619379602
Berbera,10.4396,45.0143,85.6,72,100,14.81,SO,1619379603
Koslan,63.4564,48.8989,39.94,95,100,5.59,RU,1619379604
Bonavista,48.6499,-53.1147,51.8,43,78,11.5,CA,1619379605
Tual,-5.6667,132.75,83.39,63,100,6.2,ID,1619379605
Antalaha,-14.9003,50.2788,72.34,90,100,5.84,MG,1619379606
Dongying,37.4564,118.4856,53.6,44,98,1.12,CN,1619379606
Baoqing,46.3317,132.2111,36.25,38,28,4.9,CN,1619379607
Leningradskiy,69.3833,178.4167,21.16,86,100,2.35,RU,1619379556
Belle Fourche,44.6714,-103.8522,55.0,54,20,5.75,US,1619379608
Cam Ranh,11.9214,109.1591,80.6,83,40,2.3,VN,1619379608
Joshīmath,30.5667,79.5667,49.03,50,0,9.69,IN,1619379609
Olafsvik,64.8945,-23.7142,43.77,84,12,8.7,IS,1619379465
Bethel,41.3712,-73.414,55.4,67,90,9.22,US,1619379610
Kisangani,0.5167,25.2,70.14,97,93,2.01,CD,1619379610
Makakilo City,21.3469,-158.0858,80.6,54,1,8.05,US,1619379610
Sørland,67.667,12.6934,37.4,70,75,8.05,NO,1619379611
Port Elizabeth,-33.918,25.5701,59.0,82,100,2.3,ZA,1619379545
College,64.8569,-147.8028,53.01,37,1,0.85,US,1619379612
Tumpat,6.1978,102.171,78.8,94,20,4.61,MY,1619379612
Lebu,-37.6167,-73.65,59.59,77,0,12.62,CL,1619379612
Portland,45.5234,-122.6762,57.99,62,75,3.44,US,1619379486
Port Blair,11.6667,92.75,81.55,74,98,4.97,IN,1619379613
Tagusao,9.1924,117.8141,79.41,79,79,1.41,PH,1619379614
Cabo San Lucas,22.8909,-109.9124,84.99,31,40,6.73,MX,1619379614
Dzhebariki-Khaya,62.2167,135.8,14.13,93,100,2.75,RU,1619379614
Puerto El Triunfo,13.2833,-88.55,98.6,39,20,3.44,SV,1619379615
Sakaiminato,35.55,133.2333,51.8,46,1,13.8,JP,1619379615
Ripoll,42.2006,2.1903,55.99,67,58,1.99,ES,1619379616
Almenara,-16.1836,-40.6944,81.54,67,13,3.94,BR,1619379616
Nicolás Bravo,18.45,-88.9167,91.0,66,40,12.66,MX,1619379617
Bex,46.2521,7.0114,66.2,34,0,4.61,CH,1619379617
Goundam,16.4145,-3.6708,91.08,9,19,2.93,ML,1619379618
Srednekolymsk,67.45,153.6833,9.68,89,34,5.19,RU,1619379618
Vao,-22.6667,167.4833,73.33,76,52,12.41,NC,1619379619
Lyaskelya,61.7667,31.0167,42.71,91,100,6.71,RU,1619379619
Souillac,-20.5167,57.5167,75.2,94,75,11.5,MU,1619379570
Mogadishu,2.0371,45.3438,83.44,75,98,12.26,SO,1619379625
Nemuro,43.3236,145.575,32.0,67,11,17.81,JP,1619379397
Huilong,31.8111,121.655,63.0,86,39,7.76,CN,1619379626
Gwadar,25.1216,62.3254,82.02,56,100,9.04,PK,1619379626
Kailua,21.4022,-157.7394,80.6,69,75,9.22,US,1619379617
Severo-Kuril'sk,50.6789,156.125,31.8,97,100,11.05,RU,1619379615
Sioux Lookout,50.1001,-91.917,46.4,27,75,9.22,CA,1619379627
Ngunguru,-35.6167,174.5,56.52,80,71,7.56,NZ,1619379628
Hirtshals,57.5881,9.9592,39.99,65,7,2.3,DK,1619379628
High Prairie,55.4334,-116.4858,42.8,31,97,13.8,CA,1619379629
Sulangan,11.1373,123.7228,81.7,73,16,8.63,PH,1619379629
Vallenar,-28.5708,-70.7581,78.06,35,0,8.03,CL,1619379630
Hong Kong,22.2855,114.1577,72.0,90,100,19.82,HK,1619379626
Iralaya,15.0,-83.2333,84.43,62,14,11.27,HN,1619379631
Novyy Urgal,51.0736,132.5642,29.8,53,97,1.21,RU,1619379631
Aripuanã,-9.1667,-60.6333,82.72,79,93,0.51,BR,1619379631
Albania,41.0,20.0,53.6,71,0,2.3,AL,1619379632
Lyubim,58.3625,40.6843,34.74,96,100,12.17,RU,1619379632
Nikolskoye,59.7035,30.7861,39.0,93,90,8.95,RU,1619379615
Kununurra,-15.7667,128.7333,62.6,88,96,4.61,AU,1619379633
Geraldton,-28.7667,114.6,66.2,52,0,12.66,AU,1619379634
Marawi,7.9986,124.2928,77.0,90,100,1.01,PH,1619379634
Ostrovnoy,68.0531,39.5131,34.07,98,100,19.91,RU,1619379634
Porgera,-5.4667,143.2,42.49,99,100,0.78,PG,1619379635
Santa Maria,-29.6842,-53.8069,71.6,56,75,5.75,BR,1619379636
Porto Murtinho,-21.6989,-57.8825,74.08,64,100,6.89,BR,1619379636
Warri,5.5167,5.75,79.23,85,100,4.16,NG,1619379637
Castro,-24.7911,-50.0119,64.26,85,100,4.74,BR,1619379562
Winslow,35.0242,-110.6974,78.8,9,1,18.41,US,1619379637
Kashgar,39.4547,75.9797,64.4,15,40,13.42,CN,1619379638
Óbidos,-1.9175,-55.5181,83.5,78,80,3.22,BR,1619379638
Soria,41.6667,-2.6667,48.0,94,100,3.65,ES,1619379629
Boende,-0.2167,20.8667,72.68,86,51,3.53,CD,1619379456
Wad Rāwah,15.1603,33.1397,95.65,14,9,9.19,SD,1619379639
Lompoc,34.6391,-120.4579,59.0,67,100,8.05,US,1619379431
Oyama,36.3,139.8,55.0,52,20,6.91,JP,1619379640
Gari,59.4307,62.3497,40.44,88,100,5.37,RU,1619379641
Sítio Novo do Tocantins,-5.5183,-47.4611,81.95,88,33,2.53,BR,1619379641
Warmbad,-28.45,18.7333,71.74,38,88,6.53,NA,1619379641
Krasnyy Chikoy,50.3643,108.7512,33.51,96,100,10.13,RU,1619379642
Gijón,43.5357,-5.6615,60.01,84,100,5.99,ES,1619379643
Sobolevo,54.4299,31.8996,31.51,79,12,7.58,RU,1619379643
Honchō,41.8833,140.6833,34.29,72,19,10.2,JP,1619379643
Caibarién,22.5206,-79.4669,95.0,24,40,9.22,CU,1619379644
Ballina,-28.8667,153.5667,60.8,94,90,6.91,AU,1619379644
Gabú,12.2833,-14.2167,90.75,15,91,5.91,GW,1619379645
Matara,5.9485,80.5353,77.36,88,24,2.75,LK,1619379454
Hanna,51.6334,-111.9018,44.01,44,100,5.99,CA,1619379646
Nouakchott,18.0858,-15.9785,69.8,68,0,21.85,MR,1619379651
Nelson Bay,-32.7167,152.15,54.0,100,28,5.75,AU,1619379652
Saldanha,-33.0117,17.9442,60.8,88,100,6.91,ZA,1619379483
Manggar,-2.8833,108.2667,80.87,75,8,7.29,ID,1619379652
Smithers,54.7804,-127.1743,50.0,23,1,4.61,CA,1619379653
Port Macquarie,-31.4333,152.9167,55.0,97,9,1.99,AU,1619379653
Thompson,55.7435,-97.8558,37.4,38,75,11.5,CA,1619379376
Cidreira,-30.1811,-50.2056,70.0,69,83,14.12,BR,1619379383
Kaili,-3.4626,120.2147,66.09,90,51,3.04,ID,1619379654
Canoa,18.355,-71.1585,86.0,70,40,13.8,DO,1619379655
Mehamn,71.0357,27.8492,33.8,75,40,13.8,NO,1619379655
Pleshanovo,52.8333,53.4833,39.74,64,4,9.82,RU,1619379656
Shenjiamen,29.9576,122.298,59.31,77,26,6.02,CN,1619379656
Challans,46.8436,-1.8749,64.4,36,0,17.27,FR,1619379657
Padang,-0.9492,100.3543,77.59,85,92,3.36,ID,1619379560
Qingyang,37.4958,121.2581,51.84,59,100,2.01,CN,1619379658
Ciudad Bolivar,8.1222,-63.5497,96.89,31,74,11.7,VE,1619379658
Bealanana,-14.55,48.7333,62.91,99,100,2.95,MG,1619379659
Aksu,41.1231,80.2644,57.81,28,28,7.36,CN,1619379659
Hailar,49.2,119.7,48.61,30,100,14.56,CN,1619379660
Yar-Sale,66.8333,70.8333,33.06,92,100,11.97,RU,1619379621
Timbiquí,2.7717,-77.6654,82.54,76,84,8.48,CO,1619379660
Mercedes,-34.6515,-59.4307,70.0,68,47,4.0,AR,1619379661
Yablonovo,50.8523,37.3574,42.8,56,0,6.71,RU,1619379661
Cabedelo,-6.9811,-34.8339,84.2,79,20,12.66,BR,1619379581
Kuytun,54.3419,101.5036,30.38,87,88,9.48,RU,1619379662
Ilulissat,69.2167,-51.1,51.8,40,95,12.66,GL,1619379423
Kalakamati,-20.5929,27.3121,57.2,54,0,1.14,BW,1619379663
Jiangyou,31.7667,104.7167,57.25,89,100,3.44,CN,1619379663
Nedelino,41.45,25.0833,43.27,87,8,3.71,BG,1619379664
Brigantine,39.4101,-74.3646,63.0,59,90,11.5,US,1619379664
Verkhnyaya Toyma,62.2349,44.9985,40.77,93,100,5.75,RU,1619379544
San Rafael,-34.6177,-68.3301,67.26,44,7,9.91,AR,1619379570
Tawang Town,27.5833,91.8667,40.8,75,6,6.15,IN,1619379665
Omboué,-1.5746,9.2618,79.72,85,0,5.55,GA,1619379666
Kruisfontein,-34.0033,24.7314,72.75,38,100,5.53,ZA,1619379666
Udachny,66.4167,112.4,7.88,91,100,23.82,RU,1619379649
Codrington,-38.2667,141.9667,53.62,84,100,4.92,AU,1619379663
Jining,35.405,116.5814,53.19,91,100,3.24,CN,1619379667
Smoky Lake,54.1169,-112.4686,44.6,22,63,10.36,CA,1619379667
Quatre Cocos,-20.2078,57.7625,78.01,94,75,11.5,MU,1619379659
Havøysund,70.9963,24.6622,33.8,86,75,5.75,NO,1619379668
Grand-Santi,4.25,-54.3833,80.65,91,56,3.85,GF,1619379516
Bogorodskoye,56.55,37.8833,34.07,75,100,13.4,RU,1619379669
Unión de Reyes,22.7953,-81.5375,87.8,51,40,12.66,CU,1619379670
Lárdos,36.0942,28.0157,64.4,82,20,16.11,GR,1619379670
Tongliao,43.6125,122.2653,50.27,27,100,7.67,CN,1619379671
Lábrea,-7.2586,-64.7981,89.24,58,62,3.22,BR,1619379676
Shimsk,58.212,30.7127,36.36,93,100,8.3,RU,1619379677
Alfreton,53.0961,-1.3883,46.4,66,0,11.5,GB,1619379677
Pevek,69.7008,170.3133,20.07,93,100,11.68,RU,1619379627
Awjilah,29.1081,21.2869,65.97,61,0,16.42,LY,1619379678
Bathsheba,13.2167,-59.5167,84.2,51,20,19.57,BB,1619379669
Saraza,8.7356,117.78,77.36,83,78,2.91,PH,1619379679
Karpathos,35.507,27.2132,60.8,72,36,37.98,GR,1619379679
San Cosme y Damián,-27.3167,-56.35,75.2,56,40,13.8,PY,1619379680
Viedma,-40.8135,-62.9967,66.9,37,6,6.13,AR,1619379680
Gizo Government Station,-8.103,156.8419,82.38,73,12,2.77,SB,1619379681
Along,28.1667,94.7667,65.37,58,4,2.08,IN,1619379681
Wattegama,6.7989,81.4808,78.8,100,75,2.24,LK,1619379682
Port Lincoln,-34.7333,135.8667,59.31,80,7,7.45,AU,1619379356
Kokopo,-4.352,152.2633,77.76,84,94,4.0,PG,1619379682
Dali,25.7,100.1833,56.19,48,0,4.97,CN,1619379496
Pangnirtung,66.1451,-65.7125,32.0,93,90,8.05,CA,1619379450
Byron Bay,-28.65,153.6167,60.8,94,90,6.91,AU,1619379676
Santa Rosa,14.3122,121.1114,80.6,78,20,4.61,PH,1619379683
Klamath Falls,42.2249,-121.7817,39.2,81,90,6.91,US,1619379476
Port Hardy,50.6996,-127.4199,50.0,87,90,6.91,CA,1619379630
Stellenbosch,-33.9346,18.8668,63.0,94,20,10.36,ZA,1619379531
Gushikawa,26.3544,127.8686,66.2,94,1,5.75,JP,1619379685
Kingseat,56.0974,-3.4084,46.4,76,0,3.44,GB,1619379686
Loandjili,-4.7561,11.8578,80.6,89,20,4.61,CG,1619379686
Kuopio,62.8924,27.677,35.6,100,90,8.05,FI,1619379687
Takaka,-40.85,172.8,48.99,78,87,1.01,NZ,1619379687
Fort Nelson,58.8053,-122.7002,51.8,22,40,11.5,CA,1619379688
Stawell,-37.05,142.7667,44.85,88,0,3.13,AU,1619379688
Klaksvík,62.2266,-6.589,46.4,93,100,10.36,FO,1619379629
Pedernales,18.0384,-71.744,82.87,64,91,7.63,DO,1619379689
Kiunga,-6.1219,141.2906,72.0,96,100,0.65,PG,1619379689
Mount Gambier,-37.8333,140.7667,51.8,93,90,4.61,AU,1619379690
Ondangwa,-17.9167,15.95,71.6,46,4,3.44,NA,1619379691
Zhigansk,66.7697,123.3711,32.5,99,100,8.39,RU,1619379627
Daitari,21.1,85.75,76.46,53,32,1.41,IN,1619379691
Kumluca,36.3703,30.2869,66.65,60,35,2.64,TR,1619379692
Suntar,62.1444,117.6319,34.2,98,100,6.71,RU,1619379692
Korla,41.7597,86.1469,49.75,26,7,8.01,CN,1619379693
Hobyo,5.3505,48.5268,84.24,63,36,10.56,SO,1619379693
Bambous Virieux,-20.3428,57.7575,78.01,94,75,11.5,MU,1619379625
Bella Union,-30.2752,-57.6007,67.95,40,0,10.98,UY,1619379694
Keti Bandar,24.1447,67.4497,81.77,74,0,17.22,PK,1619379694
Kavieng,-2.5744,150.7967,81.39,76,100,3.09,PG,1619379610
Nelspruit,-25.4745,30.9703,64.4,72,0,6.91,ZA,1619379695
Boyabat,41.4689,34.7667,46.65,80,94,2.68,TR,1619379701
Flinders,-34.5833,150.8552,51.01,85,16,1.01,AU,1619379501
Dicabisagan,17.0818,122.4157,74.3,84,54,4.81,PH,1619379702
Xishan,27.6667,113.5,60.8,100,40,8.95,CN,1619379702
General Roca,-39.0333,-67.5833,69.8,46,0,10.36,AR,1619379703
Longyearbyen,78.2186,15.6401,21.2,58,40,12.66,SJ,1619379459
Yumen,40.2833,97.2,38.08,15,100,11.65,CN,1619379661
Pacific Grove,36.6177,-121.9166,60.8,51,75,11.5,US,1619379704
Umeå,63.8284,20.2597,39.2,45,0,9.22,SE,1619379705
Matagami,49.7502,-77.6328,21.2,86,90,20.71,CA,1619379705
Labuhan,-6.8844,112.2051,77.11,86,84,7.25,ID,1619379630
Csökmő,47.0333,21.3,48.2,93,20,8.05,HU,1619379706
Awasa,7.05,38.4667,63.81,81,100,3.15,ET,1619379706
Barra de Tecoanapa,16.5167,-98.75,86.52,62,93,11.05,MX,1619379707
Kungurtug,50.5994,97.5228,22.32,89,100,4.45,RU,1619379707
Cayenne,4.9333,-52.3333,84.2,74,75,11.5,GF,1619379665
Varhaug,58.6147,5.6457,41.0,75,8,4.0,NO,1619379708
Mapastepec,15.4333,-92.9,92.44,53,89,10.0,MX,1619379708
Ayamé,5.6083,-3.1563,76.84,87,100,3.6,CI,1619379709
Bétaré Oya,5.6,14.0833,71.49,82,100,2.73,CM,1619379709
Mareeba,-17.0,145.4333,75.2,94,75,6.91,AU,1619379461
Evensk,61.95,159.2333,22.84,94,100,5.01,RU,1619379643
Petropavlovsk-Kamchatskiy,53.0452,158.6483,33.8,100,75,4.47,RU,1619379514
Springbok,-29.6643,17.8865,58.57,61,100,1.43,ZA,1619379711
Taltal,-25.4,-70.4833,65.25,74,51,4.59,CL,1619379711
Acapulco de Juárez,16.8634,-99.8901,87.8,62,90,11.5,MX,1619379471
Kirakira,-10.4544,161.9205,79.7,83,32,4.43,SB,1619379663
Kholmy,51.871,32.6006,33.66,62,1,4.56,UA,1619379712
Sattahip,12.6664,100.9007,86.0,94,20,4.61,TH,1619379713
"Del Carmen, Surigao del Norte",9.8694,125.9697,79.0,79,99,5.5,PH,1619379714
Hajnówka,52.7433,23.5812,32.0,74,39,1.01,PL,1619379714
Airai,-8.9266,125.4092,54.97,83,23,1.63,TL,1619379621
Ozernovskiy,51.5,156.5167,31.46,97,100,9.62,RU,1619379715
Meulaboh,4.1363,96.1285,76.87,86,82,4.36,ID,1619379716
Sémbé,1.6481,14.5806,75.92,78,59,0.74,CG,1619379716
Chitungwiza,-18.0127,31.0756,62.01,67,31,3.0,ZW,1619379716
West Fargo,46.875,-96.9004,37.4,87,90,16.11,US,1619379717
Sabang,5.8933,95.3214,81.79,75,94,12.5,ID,1619379717
Bay-Khaak,51.1667,94.5,29.26,61,60,6.46,RU,1619379718
Bengkulu,-3.8004,102.2655,75.76,89,57,4.59,ID,1619379643
Merauke,-8.4667,140.3333,75.52,86,100,6.89,ID,1619379449
Orotukan,62.2667,151.7,3.47,87,67,5.88,RU,1619379719
Kyshtovka,56.555,76.6271,41.67,65,100,7.56,RU,1619379719
Najrān,17.4924,44.1277,78.8,47,75,8.05,SA,1619379720
Buncrana,55.1333,-7.45,59.0,58,0,13.8,IE,1619379725
São Filipe,14.8961,-24.4956,72.59,71,62,10.58,CV,1619379678
Bucerías,20.75,-105.3333,82.4,69,20,12.66,MX,1619379673
Tayshet,55.9342,98.0044,32.85,97,100,10.02,RU,1619379726
Kaitangata,-46.2817,169.8464,37.0,77,84,1.99,NZ,1619379425
Bahía Solano,6.2262,-77.4044,82.47,81,96,8.61,CO,1619379639
Bétérou,9.1992,2.2586,82.98,65,94,2.95,BJ,1619379728
Puerto del Rosario,28.5004,-13.8627,69.8,60,20,10.36,ES,1619379729
Buraidah,26.326,43.975,87.8,27,75,12.66,SA,1619379500
Shāhpur,16.7,76.8333,91.45,27,100,0.76,IN,1619379730
Sosnovo-Ozerskoye,52.5249,111.5418,35.76,94,100,14.79,RU,1619379730
Ginir,7.1333,40.7,58.42,93,88,4.29,ET,1619379731
Marabu,4.4148,114.0089,75.2,100,20,2.3,MY,1619379731
Berlevåg,70.8578,29.0864,30.2,69,75,8.05,NO,1619379589
Pangai,-19.8,-174.35,78.8,83,75,5.75,TO,1619379732
Tucuruí,-3.7661,-49.6725,81.55,81,99,2.64,BR,1619379733
La Ronge,55.1001,-105.2842,39.2,44,100,12.66,CA,1619379625
Luga,58.7372,29.8453,36.09,92,100,6.82,RU,1619379733
Darbhanga,26.1667,85.9,80.35,9,47,5.64,IN,1619379734
Jackson,42.4165,-122.8345,51.8,58,75,4.29,US,1619379473
Petrodvorets,59.885,29.8958,39.0,93,90,8.95,RU,1619379656
Guerrero Negro,27.9769,-114.0611,67.95,55,98,13.71,MX,1619379605
Rocky Mountain House,52.3668,-114.9188,41.0,38,100,5.75,CA,1619379736
Broken Hill,-31.95,141.4333,50.0,71,0,6.6,AU,1619379718
Sokolo,14.7328,-6.1219,98.51,11,44,3.06,ML,1619379737
Río Gallegos,-51.6226,-69.2181,68.0,26,40,13.8,AR,1619379686
Hambantota,6.1241,81.1185,78.8,100,75,6.06,LK,1619379654
Colac,-38.3333,143.5833,52.0,1,78,3.0,AU,1619379738
Miyako,39.6367,141.9525,38.59,68,14,10.47,JP,1619379738
Berezovyy,51.6667,135.7,28.98,63,41,4.14,RU,1619379739
Preobrazheniye,42.9019,133.9064,34.7,57,0,3.04,RU,1619379739
Ahvāz,31.3203,48.6693,86.0,25,0,2.3,IR,1619379740
Assiniboia,49.6334,-105.9845,39.2,60,100,12.66,CA,1619379639
Miandrivazo,-19.5167,45.4667,77.31,71,100,3.49,MG,1619379741
Turbat,26.0023,63.044,83.16,36,92,7.56,PK,1619379741
Ayr,55.4627,-4.6339,50.0,81,0,9.22,GB,1619379741
Te Anau,-45.4167,167.7167,43.81,93,100,8.32,NZ,1619379651
Bandarbeyla,9.4942,50.8122,83.01,72,64,8.39,SO,1619379682
Muisne,0.6,-80.0333,79.86,77,72,9.73,EC,1619379743
Tadine,-21.55,167.8833,72.97,85,96,4.61,NC,1619379743
Lynden,48.9465,-122.4521,50.0,81,90,9.22,US,1619379744
Hohhot,40.8106,111.6522,48.2,93,20,4.47,CN,1619379744
Shitanjing,39.2342,106.3439,43.57,53,18,14.63,CN,1619379745
Dmitrovsk-Orlovskiy,52.505,35.1464,32.41,69,0,6.91,RU,1619379745
Naze,28.3667,129.4833,64.15,71,34,10.85,JP,1619379612
Knysna,-34.0363,23.0471,60.8,94,0,3.44,ZA,1619379746
Lüderitz,-26.6481,15.1594,62.31,90,97,3.78,NA,1619379609
Cururupu,-1.8283,-44.8683,80.19,84,99,4.27,BR,1619379751
Margate,51.3813,1.3862,43.0,64,40,8.01,GB,1619379630
Mandalgovi,45.7625,106.2708,29.68,81,30,23.11,MN,1619379644
Karratha,-20.7377,116.8463,75.85,62,0,8.46,AU,1619379646
Bontang,0.1333,117.5,77.41,86,100,3.87,ID,1619379753
Old Saybrook,41.2918,-72.3762,55.4,71,90,10.36,US,1619379753
Olinda,-8.0089,-34.8553,80.6,74,40,10.36,BR,1619379754
Salalah,17.0151,54.0924,84.2,70,40,8.05,OM,1619379695
Bowen,-20.0167,148.2333,71.6,83,90,8.05,AU,1619379754
Wau,7.7029,27.9953,75.83,76,100,3.87,SS,1619379755
Port Keats,-14.25,129.55,74.57,42,100,5.53,AU,1619379755
Constitución,-35.3333,-72.4167,64.71,62,4,15.12,CL,1619379756
Tatarsk,55.219,75.9828,44.47,49,100,12.62,RU,1619379756
Teruel,40.6667,-0.6667,57.2,82,0,9.22,ES,1619379757
Beloha,-25.1667,45.05,72.88,79,0,6.71,MG,1619379757
Emba,48.8264,58.1442,52.65,82,100,4.92,KZ,1619379758
Alice Springs,-23.7,133.8833,44.6,70,0,5.75,AU,1619379674
Kiama,-34.6833,150.8667,52.0,91,9,4.99,AU,1619379759
Trairi,-3.2778,-39.2689,79.56,78,22,7.85,BR,1619379759
Pelym,61.0108,61.9978,46.42,49,100,13.13,RU,1619379760
Hare Bay,48.8499,-54.0148,53.6,43,80,11.5,CA,1619379760
Mangai,-4.05,19.5333,71.76,88,39,1.52,CD,1619379761
Zelenoborsk,61.4669,64.0333,45.41,55,100,13.47,RU,1619379761
Yaan,7.3833,8.5667,82.8,66,90,4.81,NG,1619379761
Crvenka,45.6586,19.4556,55.4,50,0,8.05,RS,1619379762
Ambilobe,-13.2,49.05,72.18,81,75,3.6,MG,1619379587
Kānkon,15.0167,74.0167,84.2,84,40,8.05,IN,1619379763
Biak,-0.9131,122.8766,75.29,81,77,4.65,ID,1619379689
Gamba,-2.65,10.0,78.69,87,86,4.45,GA,1619379719
Arrondissement de Rambouillet,48.5833,1.9167,54.0,51,99,5.99,FR,1619379764
Djebeniana,35.035,10.9081,64.4,72,20,9.22,TN,1619379764
Saint-Pierre,-21.3393,55.4781,78.8,73,75,24.16,RE,1619379706
Homer,59.6425,-151.5483,48.0,49,75,6.91,US,1619379765
Amapá,1.0,-52.0,71.4,98,100,5.5,BR,1619379765
El Alto,-4.2714,-81.2147,84.2,54,0,13.8,PE,1619379766
Tawao,4.2498,117.8871,75.2,94,20,5.41,MY,1619379766
Tarakan,3.3,117.6333,79.77,79,90,3.09,ID,1619379767
Comodoro Rivadavia,-45.8667,-67.5,66.2,45,0,9.22,AR,1619379669
Ambulu,-8.345,113.6058,73.78,86,69,3.38,ID,1619379768
Huaihua,27.5494,109.9592,56.77,98,100,2.64,CN,1619379768
Boone,39.0334,-92.3335,70.0,42,1,6.91,US,1619379768
Teseney,15.11,36.6575,91.02,22,23,6.73,ER,1619379769
Ketchikan,55.3422,-131.6461,55.4,38,1,9.22,US,1619379632
Bīkāpur,26.6,82.1333,80.01,12,1,5.66,IN,1619379770
Anloga,5.7947,0.8973,84.2,84,40,8.05,GH,1619379770
Dunedin,-45.8742,170.5036,48.0,38,84,11.99,NZ,1619379406
Hualmay,-11.0964,-77.6139,71.37,75,15,7.92,PE,1619379421
Vikhorevka,56.1201,101.1636,30.2,69,22,6.71,RU,1619379776
Beringovskiy,63.05,179.3167,31.12,86,100,1.99,RU,1619379666
Nago,26.5881,127.9761,66.2,94,1,5.75,JP,1619379777
Forestville,38.8451,-76.875,66.0,48,75,17.27,US,1619379777
Sur,22.5667,59.5289,84.29,45,0,10.22,OM,1619379646
Hervey Bay,-25.2986,152.8535,60.01,88,3,4.0,AU,1619379524
Saint-Joseph,-21.3667,55.6167,78.8,73,75,24.16,RE,1619379673
Dossor,47.5272,52.9811,55.89,65,98,14.03,KZ,1619379778
Ayan,56.45,138.1667,21.25,83,39,4.94,RU,1619379779
Mingyue,43.1069,128.9217,36.1,51,53,1.72,CN,1619379779
Ust-Kuyga,70.0167,135.6,24.6,99,100,4.25,RU,1619379780
Roald,62.5833,6.1333,39.2,65,75,9.22,NO,1619379711
Gazalkent,41.5581,69.7708,62.6,51,0,4.61,UZ,1619379781
Zhengjiatun,43.5064,123.5064,51.1,29,100,5.01,CN,1619379781
Taoudenni,22.6783,-3.9836,96.84,9,6,8.48,ML,1619379735
Moose Factory,51.2585,-80.6094,30.2,51,40,20.71,CA,1619379657
Bridlington,54.0831,-0.1919,44.6,76,90,10.36,GB,1619379782
Maumere,-8.6199,122.2111,79.72,72,98,8.05,ID,1619379723
Teguise,29.0605,-13.564,69.8,60,20,12.66,ES,1619379783
Husavik,66.0449,-17.3389,39.2,93,90,14.97,IS,1619379644
Khāsh,28.2211,61.2158,72.03,28,56,2.17,IR,1619379783
Manadhoo,5.7667,73.3833,83.46,73,5,6.17,MV,1619379784
Nanga Eboko,4.6833,12.3667,71.11,93,95,3.22,CM,1619379784
Nouadhibou,20.931,-17.0347,68.0,77,0,16.11,MR,1619379628
Douentza,14.9951,-2.9517,93.87,11,56,2.59,ML,1619379785
Luganville,-15.5333,167.1667,78.6,85,81,3.27,VU,1619379786
Maniitsoq,65.4167,-52.9,39.69,80,100,2.39,GL,1619379638
Kloulklubed,7.0419,134.2556,77.0,88,90,10.36,PW,1619379705
La Tuque,47.4334,-72.7824,64.4,29,100,13.8,CA,1619379752
Sechura,-5.5569,-80.8222,80.44,58,62,13.42,PE,1619379787
Talaya,61.3833,152.75,0.1,98,99,2.21,RU,1619379763
Balasore,21.4942,86.9317,81.19,60,96,11.01,IN,1619379787
Esmeralda,21.8525,-78.1169,89.6,51,40,13.8,CU,1619379788
Wright,45.1833,-93.9502,44.6,53,100,6.91,US,1619379788
Khokhlovo,59.1492,37.3998,39.2,93,90,6.71,RU,1619379789
Emerald,-23.5333,148.1667,57.2,54,4,4.61,AU,1619379789
Apitong,13.2391,121.2075,75.99,89,61,0.47,PH,1619379790
Jalu,29.0331,21.5482,67.06,58,0,16.37,LY,1619379752
Zhezkazgan,47.8043,67.7144,51.98,59,92,4.81,KZ,1619379791
Sarkand,45.41,79.9186,49.93,66,100,4.07,KZ,1619379633
Kaseda-shirakame,31.4167,130.3167,60.17,80,100,6.35,JP,1619379791
Chum Phae,16.5443,102.0992,81.01,68,97,4.07,TH,1619379792
Puerto Escondido,15.85,-97.0667,87.8,74,20,6.91,MX,1619379579
Turukhansk,65.8167,87.9833,6.49,95,15,6.26,RU,1619379767
São João da Barra,-21.6403,-41.0511,82.4,61,20,11.5,BR,1619379616
Province of Groningen,53.25,6.75,43.0,65,29,5.75,NL,1619379793
Ukiah,39.1502,-123.2078,53.6,76,75,8.08,US,1619379794
Nānākuli,21.3906,-158.1547,80.6,54,1,8.05,US,1619379729
Olonets,60.9847,32.9698,34.54,97,100,6.42,RU,1619379800
Barranca,-10.75,-77.7667,70.32,74,15,7.9,PE,1619379736
Chicama,-7.8447,-79.1469,68.0,77,0,8.05,PE,1619379655
Jharsuguda,21.85,84.0333,80.67,17,0,6.76,IN,1619379801
Dwārka,22.2394,68.9678,81.97,80,0,14.76,IN,1619379802
Laguna,38.421,-121.4238,64.0,51,90,8.05,US,1619379604
Maxixe,-23.8597,35.3472,75.2,83,40,1.21,MZ,1619379696
Bundaberg,-24.85,152.35,63.0,88,0,6.91,AU,1619379687
Christchurch,-43.5333,172.6333,48.99,100,88,2.3,NZ,1619379720
Oussouye,12.485,-16.5469,84.2,83,0,4.61,SN,1619379804
Hinche,19.15,-72.0167,84.2,70,40,12.66,HT,1619379805
Anito,12.4497,125.2886,76.78,85,100,7.72,PH,1619379805
Breyten,-26.3018,29.987,49.15,74,0,4.05,ZA,1619379806
Halifax,44.6453,-63.5724,60.01,76,100,10.36,CA,1619379543
Kusadak,44.3997,20.8033,59.0,41,0,4.61,RS,1619379807
Dingle,10.9995,122.6711,75.74,85,38,3.33,PH,1619379604
Sittwe,20.15,92.9,81.77,79,1,6.04,MM,1619379808
Erenhot,43.6475,111.9767,52.86,54,97,20.47,CN,1619379622
Mairi,-11.7114,-40.1489,79.38,63,95,4.12,BR,1619379808
Sola,-13.8833,167.55,81.75,74,80,4.85,VU,1619379641
Half Moon Bay,37.4636,-122.4286,57.2,82,90,13.8,US,1619379809
Tanout,14.9709,8.8879,91.44,13,100,11.32,NE,1619379810
Tyrma,50.0833,132.1667,27.97,52,50,2.68,RU,1619379810
Port Pirie,-33.1833,138.0167,50.0,93,1,3.44,AU,1619379709
Atar,20.5169,-13.0499,86.05,14,0,8.93,MR,1619379612
Aklavik,68.2191,-135.0107,24.8,68,1,9.22,CA,1619379743
